time (UTC),feature_type_instance,latitude (degrees_north),longitude (degrees_east),crs,platform,depth (m),acceleration_x,acceleration_y,acceleration_z,avg_wind_u,avg_wind_v,avg_wind_w,buoyancy_flux,dcl_date_time_string (1),heading,max_acc_x,max_acc_y,max_acc_z,max_heading,max_pitch,max_rate_x,max_rate_y,max_rate_z,max_roll,max_speed_of_sound,max_wind_u,max_wind_v,max_wind_w,min_acc_x,min_acc_y,min_acc_z,min_heading,min_pitch,min_rate_x,min_rate_y,min_rate_z,min_roll,min_speed_of_sound,min_wind_u,min_wind_v,min_wind_w,momentum_flux_uw,momentum_flux_vw,pitch,processing_version,rate_x,rate_y,rate_z,roll,speed_of_sound,start_time,status,std_acc_x,std_acc_y,std_acc_z,std_heading,std_pitch,std_rate_x,std_rate_y,std_rate_z,std_roll,std_speed_of_sound,std_u_corrected,std_v_corrected,std_w_corrected,std_wind_u,std_wind_v,std_wind_w,u_corrected,v_corrected,w_corrected,wave_motion,wind_speed,deploy_id (1)
2024-06-02 00:21:58+00:00,gi01sumo,59.998,-39.481,-2147483647,-2147483647,-4.81,0.49,-0.72,0.5,1.95,-1.92,-3.05,-0.0,2024/06/02 00:21:58.761,1.49,0.49,-0.71,0.5,1.5,-0.48,0.02,0.02,0.03,-0.96,19.04,3.94,-0.09,-1.19,0.48,-0.72,0.49,1.48,-0.48,-0.01,-0.01,-0.0,-0.96,18.53,0.07,-4.01,-4.96,-0.04,-0.0,-0.48,4.0,0.0,0.0,0.01,-0.96,18.72,154.008329,1,0.0,0.0,0.0,0.0,0.0,0.0,0.0,0.0,0.0,0.08,0.55,0.36,0.12,0.51,0.54,0.53,3.72,1.48,0.81,0.05,4.08,D0011
2024-06-02 01:21:58+00:00,gi01sumo,59.998,-39.481,-2147483647,-2147483647,-4.81,0.49,-0.72,0.5,0.14,-2.82,-2.23,-0.0,2024/06/02 01:21:58.410,1.53,0.49,-0.71,0.5,1.54,-0.48,0.02,0.02,0.03,-0.96,19.67,1.57,-0.33,-0.27,0.48,-0.72,0.49,1.51,-0.48,-0.01,-0.01,-0.0,-0.96,18.78,-1.3,-4.75,-4.27,-0.03,-0.01,-0.48,4.0,0.0,0.0,0.01,-0.96,19.17,154.049995,1,0.0,0.0,0.0,0.01,0.0,0.0,0.0,0.0,0.0,0.18,0.57,0.16,0.06,0.36,0.79,0.57,3.42,-0.53,0.99,0.04,3.6,D0011
2024-06-02 02:21:58+00:00,gi01sumo,59.998,-39.481,-2147483647,-2147483647,-4.81,0.49,-0.72,0.5,0.91,-2.64,-2.76,-0.0,2024/06/02 02:21:58.906,1.51,0.49,-0.71,0.5,1.53,-0.48,0.02,0.02,0.03,-0.96,19.52,2.82,-0.43,-1.13,0.48,-0.72,0.49,1.49,-0.48,-0.01,-0.01,-0.0,-0.96,18.77,-0.72,-4.86,-4.67,-0.03,-0.01,-0.48,4.0,0.0,0.0,0.01,-0.96,19.08,154.091662,1,0.0,0.0,0.0,0.01,0.0,0.0,0.0,0.0,0.0,0.15,0.57,0.31,0.11,0.48,0.71,0.51,3.8,0.28,0.98,0.05,3.93,D0011
2024-06-02 03:21:58+00:00,gi01sumo,59.998,-39.481,-2147483647,-2147483647,-4.81,0.49,-0.72,0.5,1.22,0.67,-0.04,0.01,2024/06/02 03:21:58.787,1.52,0.49,-0.71,0.5,1.53,-0.48,0.02,0.02,0.03,-0.96,19.0,3.55,5.82,3.65,0.48,-0.72,0.49,1.5,-0.48,-0.01,-0.01,-0.0,-0.96,18.25,-0.73,-3.8,-3.26,-0.19,-0.21,-0.48,4.0,0.0,0.0,0.01,-0.96,18.58,154.133329,1,0.0,0.0,0.0,0.0,0.0,0.0,0.0,0.0,0.0,0.11,0.76,0.85,0.23,0.65,1.94,1.54,-0.3,1.36,0.07,0.04,1.4,D0011
2024-06-02 04:21:58+00:00,gi01sumo,59.998,-39.481,-2147483647,-2147483647,-4.81,0.49,-0.72,0.5,2.05,2.36,1.07,0.01,2024/06/02 04:21:58.765,1.52,0.5,-0.71,0.5,1.53,-0.48,0.02,0.02,0.02,-0.96,18.95,5.12,6.54,4.46,0.48,-0.72,0.49,1.51,-0.48,-0.01,-0.01,-0.0,-0.96,17.78,-0.39,-1.11,-2.37,-0.3,-0.03,-0.48,4.0,0.0,0.0,0.01,-0.96,18.28,154.174995,1,0.0,0.0,0.0,0.0,0.0,0.0,0.0,0.0,0.0,0.28,1.18,0.84,0.39,0.81,1.11,0.86,-2.12,2.57,-0.16,0.06,3.34,D0011
2024-06-02 05:21:58+00:00,gi01sumo,59.998,-39.481,-2147483647,-2147483647,-4.81,0.49,-0.72,0.5,2.26,1.26,-0.43,0.01,2024/06/02 05:21:58.676,1.52,0.49,-0.71,0.5,1.53,-0.48,0.02,0.02,0.02,-0.95,17.32,5.89,4.43,2.6,0.48,-0.72,0.49,1.51,-0.48,-0.01,-0.01,-0.0,-0.96,16.36,-0.44,-1.34,-4.23,-0.08,-0.09,-0.48,4.0,0.0,0.0,0.01,-0.96,16.79,154.216662,1,0.0,0.0,0.0,0.0,0.0,0.0,0.0,0.0,0.0,0.2,1.02,1.27,0.34,0.97,0.82,1.04,-0.24,2.6,-0.02,0.04,2.61,D0011
2024-06-02 06:21:58+00:00,gi01sumo,59.998,-39.481,-2147483647,-2147483647,-4.81,0.49,-0.72,0.5,2.7,1.32,-0.7,0.01,2024/06/02 06:21:58.209,1.51,0.5,-0.71,0.5,1.52,-0.48,0.02,0.02,0.03,-0.96,16.19,6.88,4.76,2.64,0.48,-0.72,0.49,1.5,-0.48,-0.01,-0.01,-0.0,-0.96,15.66,0.06,-1.95,-4.67,-0.13,-0.09,-0.48,4.0,0.0,0.0,0.01,-0.96,15.88,154.258329,1,0.0,0.0,0.0,0.0,0.0,0.0,0.0,0.0,0.0,0.08,1.19,1.35,0.43,1.09,0.89,1.15,-0.0,3.1,0.03,0.05,3.1,D0011
2024-06-02 07:21:58+00:00,gi01sumo,59.998,-39.481,-2147483647,-2147483647,-4.81,0.49,-0.72,0.5,1.93,1.26,-0.07,0.01,2024/06/02 07:21:58.426,1.55,0.49,-0.71,0.5,1.56,-0.48,0.02,0.02,0.02,-0.96,16.06,4.91,4.52,2.6,0.48,-0.72,0.49,1.53,-0.48,-0.01,-0.01,-0.0,-0.96,15.62,-0.12,-1.13,-3.25,-0.15,-0.07,-0.48,4.0,0.0,0.0,0.01,-0.96,15.78,154.299995,1,0.0,0.0,0.0,0.01,0.0,0.0,0.0,0.0,0.0,0.08,0.85,0.83,0.32,0.77,0.84,0.82,-0.62,2.23,-0.0,0.04,2.31,D0011
2024-06-02 08:21:58+00:00,gi01sumo,59.998,-39.481,-2147483647,-2147483647,-4.81,0.49,-0.72,0.5,1.72,1.17,0.03,0.01,2024/06/02 08:21:58.083,1.54,0.49,-0.71,0.5,1.55,-0.48,0.02,0.02,0.02,-0.96,15.86,4.02,3.74,3.05,0.48,-0.72,0.49,1.52,-0.48,-0.01,-0.01,-0.0,-0.96,15.48,-0.29,-1.14,-2.53,-0.11,-0.01,-0.48,4.0,0.0,0.0,0.01,-0.96,15.62,154.341662,1,0.0,0.0,0.0,0.01,0.0,0.0,0.0,0.0,0.0,0.07,0.73,0.67,0.26,0.59,0.75,0.75,-0.64,2.0,0.0,0.04,2.1,D0011
2024-06-02 09:21:58+00:00,gi01sumo,59.998,-39.481,-2147483647,-2147483647,-4.81,0.49,-0.72,0.5,1.81,1.43,0.23,0.0,2024/06/02 09:21:58.099,1.53,0.49,-0.71,0.5,1.55,-0.48,0.02,0.02,0.03,-0.96,15.51,3.93,3.92,2.47,0.48,-0.72,0.49,1.48,-0.48,-0.01,-0.01,-0.0,-0.96,15.17,-0.13,-1.27,-1.95,-0.16,-0.03,-0.48,4.0,0.0,0.0,0.01,-0.96,15.31,154.383329,1,0.0,0.0,0.0,0.02,0.0,0.0,0.0,0.0,0.0,0.06,0.84,0.39,0.23,0.57,0.81,0.58,-0.92,2.13,-0.03,0.04,2.32,D0011
2024-06-02 10:21:58+00:00,gi01sumo,59.998,-39.481,-2147483647,-2147483647,-4.81,0.49,-0.72,0.5,1.63,1.17,0.03,0.01,2024/06/02 10:21:58.034,1.54,0.49,-0.71,0.5,1.55,-0.48,0.02,0.02,0.02,-0.96,15.59,3.84,3.75,2.29,0.48,-0.72,0.49,1.53,-0.48,-0.01,-0.01,-0.0,-0.96,14.87,-0.3,-1.33,-2.2,-0.11,-0.03,-0.48,4.0,0.0,0.0,0.01,-0.96,15.17,154.424995,1,0.0,0.0,0.0,0.0,0.0,0.0,0.0,0.0,0.0,0.11,0.72,0.52,0.21,0.57,0.75,0.66,-0.63,1.9,-0.04,0.05,2.01,D0011
2024-06-02 11:21:58+00:00,gi01sumo,59.998,-39.481,-2147483647,-2147483647,-4.81,0.49,-0.72,0.5,1.06,0.82,0.11,0.04,2024/06/02 11:21:58.711,1.52,0.49,-0.71,0.5,1.56,-0.48,0.02,0.02,0.03,-0.96,16.37,2.67,2.75,1.68,0.48,-0.72,0.49,1.49,-0.49,-0.01,-0.01,-0.0,-0.96,14.92,-0.34,-0.66,-1.39,-0.07,-0.0,-0.48,4.0,0.0,0.0,0.01,-0.96,15.53,154.466662,1,0.0,0.0,0.0,0.03,0.0,0.0,0.0,0.0,0.0,0.23,0.55,0.19,0.12,0.41,0.53,0.41,-0.5,1.25,-0.02,0.04,1.34,D0011
2024-06-02 12:21:58+00:00,gi01sumo,59.998,-39.481,-2147483647,-2147483647,-4.81,0.49,-0.72,0.5,1.13,0.6,-0.12,0.03,2024/06/02 12:21:58.453,1.49,0.52,-0.7,0.5,1.5,-0.48,0.02,0.02,0.02,-0.94,18.42,2.86,2.27,1.66,0.48,-0.73,0.49,1.47,-0.51,-0.01,-0.02,-0.01,-0.96,16.06,-0.32,-1.2,-1.76,-0.04,-0.04,-0.49,4.0,0.0,0.0,0.01,-0.96,16.87,154.508329,1,0.01,0.01,0.0,0.01,0.01,0.0,0.0,0.0,0.0,0.39,0.47,0.39,0.11,0.47,0.49,0.56,-0.15,1.26,0.06,0.05,1.27,D0011
2024-06-02 13:21:58+00:00,gi01sumo,59.998,-39.481,-2147483647,-2147483647,-4.81,0.49,-0.72,0.5,1.03,-0.39,-1.06,0.0,2024/06/02 13:21:58.093,1.49,0.49,-0.71,0.5,1.51,-0.48,0.02,0.02,0.02,-0.95,17.98,1.96,0.74,-0.29,0.48,-0.73,0.49,1.47,-0.49,-0.01,-0.02,-0.01,-0.96,17.06,-0.14,-1.46,-1.7,-0.01,-0.01,-0.49,4.0,0.0,0.0,0.01,-0.96,17.48,154.549995,1,0.0,0.0,0.0,0.01,0.0,0.0,0.0,0.0,0.0,0.13,0.25,0.04,0.02,0.34,0.37,0.2,1.18,0.96,0.26,0.07,1.54,D0011
2024-06-02 14:21:58+00:00,gi01sumo,59.998,-39.481,-2147483647,-2147483647,-4.81,0.49,-0.72,0.5,1.02,0.09,-0.74,0.01,2024/06/02 14:21:58.323,1.47,0.5,-0.71,0.5,1.49,-0.48,0.02,0.02,0.02,-0.95,19.4,1.85,0.72,0.14,0.48,-0.73,0.49,1.45,-0.49,-0.01,-0.02,-0.01,-0.96,18.04,0.15,-0.57,-1.54,-0.01,0.0,-0.49,4.0,0.0,0.0,0.01,-0.96,18.55,154.591662,1,0.0,0.0,0.0,0.01,0.0,0.0,0.01,0.0,0.0,0.23,0.23,0.03,0.03,0.22,0.16,0.22,0.67,1.07,0.07,0.47,1.26,D0011
2024-06-02 15:21:58+00:00,gi01sumo,59.998,-39.481,-2147483647,-2147483647,-4.81,0.49,-0.72,0.5,1.7,0.27,-1.08,0.02,2024/06/02 15:21:58.846,1.46,0.5,-0.71,0.5,1.47,-0.48,0.02,0.02,0.02,-0.95,20.52,2.9,1.27,0.16,0.48,-0.73,0.49,1.45,-0.49,-0.01,-0.02,-0.01,-0.96,18.84,0.48,-0.9,-2.25,-0.03,0.01,-0.49,4.0,0.0,0.0,0.01,-0.96,19.51,154.633329,1,0.0,0.0,0.0,0.0,0.0,0.0,0.01,0.0,0.0,0.26,0.33,0.08,0.06,0.32,0.3,0.32,0.94,1.81,0.1,0.53,2.04,D0011
2024-06-02 16:21:58+00:00,gi01sumo,59.998,-39.481,-2147483647,-2147483647,-4.81,0.49,-0.72,0.5,0.75,0.92,0.88,0.03,2024/06/02 16:21:58.341,5.34,0.55,-0.65,0.55,1.54,-0.47,0.03,0.03,0.04,-0.93,20.68,3.71,5.26,5.92,0.43,-0.79,0.44,-2.07,-0.52,-0.02,-0.03,-0.03,-0.99,17.5,-2.83,-1.72,-2.3,-0.08,0.05,-0.49,4.0,0.0,0.0,0.01,-0.95,18.31,154.674995,1,0.02,0.02,0.01,1.16,0.01,0.01,0.01,0.01,0.01,0.69,1.08,1.74,0.55,1.14,1.14,1.69,2.03,0.38,0.14,1.35,2.07,D0011
2024-06-02 17:21:58+00:00,gi01sumo,59.998,-39.481,-2147483647,-2147483647,-4.81,0.48,-0.72,0.5,-0.2,1.03,1.88,0.06,2024/06/02 17:21:58.425,5.68,0.58,-0.59,0.58,-0.34,-0.43,0.03,0.03,0.05,-0.9,21.28,3.18,6.09,6.66,0.39,-0.85,0.42,-0.87,-0.53,-0.03,-0.03,-0.03,-0.99,17.68,-3.44,-3.0,-1.73,-0.23,0.14,-0.49,4.0,0.0,0.0,0.01,-0.95,19.29,154.716662,1,0.02,0.03,0.02,0.14,0.01,0.01,0.01,0.01,0.01,0.67,1.25,0.89,0.8,0.84,1.32,1.3,0.89,1.99,0.08,2.86,2.18,D0011
2024-06-02 18:21:58+00:00,gi01sumo,59.998,-39.481,-2147483647,-2147483647,-4.81,0.48,-0.72,0.5,0.08,1.61,2.37,0.06,2024/06/02 18:21:58.127,5.82,0.56,-0.58,0.57,-0.32,-0.45,0.04,0.03,0.05,-0.9,19.13,2.91,5.84,5.75,0.4,-0.85,0.41,-0.64,-0.51,-0.03,-0.03,-0.03,-1.0,17.03,-2.7,-2.4,-1.42,-0.28,0.09,-0.48,4.0,0.0,0.0,0.01,-0.96,18.0,154.758329,1,0.02,0.04,0.02,0.06,0.01,0.01,0.01,0.01,0.02,0.37,1.28,0.61,0.76,0.72,1.11,0.98,1.34,2.51,0.05,3.17,2.85,D0011
2024-06-02 19:21:58+00:00,gi01sumo,59.998,-39.481,-2147483647,-2147483647,-4.81,0.48,-0.72,0.5,0.07,1.58,1.94,0.02,2024/06/02 19:21:58.647,5.19,0.57,-0.58,0.59,-0.2,-0.43,0.04,0.03,0.05,-0.91,19.37,2.91,5.33,5.34,0.4,-0.86,0.41,-1.34,-0.53,-0.03,-0.03,-0.03,-1.0,16.74,-2.87,-1.77,-1.42,-0.2,0.13,-0.48,4.0,0.0,0.0,0.01,-0.96,18.07,154.799995,1,0.02,0.04,0.02,0.36,0.01,0.01,0.01,0.01,0.02,0.34,1.25,0.82,0.75,0.76,1.19,1.08,2.25,0.71,-0.16,2.8,2.37,D0011
2024-06-02 20:21:58+00:00,gi01sumo,59.998,-39.481,-2147483647,-2147483647,-4.81,0.48,-0.72,0.5,-0.22,0.64,0.85,0.0,2024/06/02 20:21:58.849,0.07,0.56,-0.6,0.57,0.21,-0.45,0.04,0.03,0.05,-0.92,17.97,1.45,3.2,2.85,0.4,-0.83,0.42,-0.08,-0.52,-0.03,-0.03,-0.03,-1.0,13.15,-1.85,-1.56,-1.1,-0.11,0.04,-0.48,4.0,0.0,0.0,0.01,-0.96,15.43,154.841662,1,0.02,0.03,0.02,0.05,0.01,0.01,0.01,0.01,0.01,0.76,0.77,0.23,0.25,0.42,0.67,0.51,-0.25,1.05,-0.15,2.05,1.09,D0011
2024-06-02 21:21:57+00:00,gi01sumo,59.998,-39.481,-2147483647,-2147483647,-4.81,0.48,-0.72,0.5,0.03,1.12,1.34,0.01,2024/06/02 21:21:57.900,0.07,0.54,-0.68,0.54,0.12,-0.46,0.03,0.02,0.03,-0.95,16.74,1.4,2.92,3.02,0.43,-0.77,0.46,-0.01,-0.5,-0.02,-0.02,-0.01,-0.98,15.22,-1.32,-0.63,-0.49,-0.04,0.02,-0.48,4.0,0.0,0.0,0.01,-0.96,15.8,154.883329,1,0.02,0.01,0.01,0.03,0.0,0.01,0.01,0.01,0.0,0.28,0.59,0.12,0.18,0.34,0.54,0.49,-0.0,1.74,-0.13,0.43,1.75,D0011
2024-06-02 22:21:58+00:00,gi01sumo,59.998,-39.481,-2147483647,-2147483647,-4.81,0.48,-0.72,0.5,1.04,1.09,0.42,0.0,2024/06/02 22:21:58.762,0.15,0.54,-0.67,0.53,0.19,-0.44,0.02,0.02,0.03,-0.94,16.38,2.33,2.39,1.78,0.43,-0.77,0.45,0.04,-0.51,-0.01,-0.02,-0.01,-0.98,15.84,-0.56,-0.18,-0.9,0.0,0.0,-0.48,4.0,0.0,0.0,0.01,-0.96,16.06,154.924995,1,0.01,0.01,0.01,0.02,0.01,0.01,0.01,0.01,0.0,0.09,0.41,0.14,0.07,0.41,0.32,0.35,1.06,1.13,-0.08,0.47,1.56,D0011
2024-06-02 23:21:58+00:00,gi01sumo,59.998,-39.481,-2147483647,-2147483647,-4.81,0.48,-0.72,0.5,1.57,2.41,1.91,0.02,2024/06/02 23:21:58.805,4.15,0.52,-0.68,0.52,-2.11,-0.46,0.02,0.02,0.03,-0.95,17.03,5.58,6.4,4.73,0.45,-0.76,0.48,-2.17,-0.49,-0.02,-0.02,-0.01,-0.97,16.22,-3.01,-1.87,-0.82,-0.37,0.02,-0.48,4.0,0.0,0.0,0.01,-0.96,16.53,154.966662,1,0.01,0.01,0.0,0.01,0.01,0.0,0.01,0.01,0.0,0.13,1.34,1.29,0.84,1.32,1.33,0.72,1.51,-3.11,-0.03,0.47,3.45,D0011
2024-06-03 00:21:57+00:00,gi01sumo,59.998,-39.481,-2147483647,-2147483647,-4.81,0.48,-0.72,0.5,0.28,0.05,-0.28,-0.0,2024/06/03 00:21:57.863,0.09,0.53,-0.68,0.54,0.2,-0.46,0.03,0.02,0.03,-0.94,18.01,1.63,1.74,1.06,0.43,-0.77,0.46,0.0,-0.51,-0.02,-0.02,-0.01,-0.97,17.08,-1.48,-1.44,-1.63,-0.02,0.01,-0.48,4.0,0.0,0.0,0.01,-0.96,17.48,155.008329,1,0.01,0.01,0.01,0.05,0.01,0.01,0.01,0.01,0.0,0.18,0.35,0.14,0.05,0.45,0.45,0.38,0.38,-0.17,-0.04,0.4,0.41,D0011
2024-06-03 01:21:58+00:00,gi01sumo,59.998,-39.481,-2147483647,-2147483647,-4.81,0.48,-0.72,0.5,0.13,-0.34,-0.62,-0.0,2024/06/03 01:21:58.428,0.28,0.56,-0.68,0.53,0.32,-0.45,0.03,0.03,0.03,-0.95,17.91,1.46,0.75,0.38,0.41,-0.77,0.46,0.2,-0.49,-0.02,-0.03,-0.01,-0.98,17.41,-0.97,-1.35,-1.75,-0.0,-0.0,-0.48,4.0,0.0,0.0,0.01,-0.96,17.59,155.049995,1,0.02,0.01,0.01,0.03,0.01,0.01,0.01,0.01,0.0,0.08,0.31,0.12,0.04,0.35,0.28,0.3,0.34,-0.64,-0.0,0.42,0.73,D0011
2024-06-03 02:21:58+00:00,gi01sumo,59.998,-39.481,-2147483647,-2147483647,-4.81,0.48,-0.72,0.5,-0.22,-1.62,-1.56,-0.01,2024/06/03 02:21:58.721,0.31,0.53,-0.68,0.54,0.34,-0.46,0.02,0.02,0.03,-0.95,18.36,1.77,0.29,0.84,0.43,-0.76,0.46,0.28,-0.49,-0.01,-0.02,-0.01,-0.97,17.02,-2.21,-3.63,-3.98,-0.01,-0.02,-0.48,4.0,0.0,0.0,0.01,-0.96,17.48,155.091662,1,0.01,0.01,0.01,0.01,0.0,0.01,0.01,0.01,0.0,0.23,0.72,0.19,0.1,0.51,0.54,0.63,0.28,-2.23,0.29,0.37,2.27,D0011
2024-06-03 03:21:58+00:00,gi01sumo,59.998,-39.481,-2147483647,-2147483647,-4.81,0.49,-0.72,0.5,1.25,-0.57,-1.77,-0.02,2024/06/03 03:21:58.275,0.01,0.55,-0.67,0.53,0.04,-0.46,0.03,0.03,0.03,-0.95,17.83,3.15,1.07,-0.12,0.42,-0.76,0.46,-0.02,-0.49,-0.02,-0.02,-0.01,-0.97,17.05,-0.34,-2.32,-3.75,-0.03,-0.0,-0.48,4.0,0.0,0.0,0.01,-0.96,17.36,155.133329,1,0.02,0.01,0.01,0.01,0.0,0.01,0.01,0.01,0.0,0.12,0.52,0.24,0.13,0.54,0.46,0.5,1.38,-1.77,0.14,0.39,2.25,D0011
2024-06-03 04:21:58+00:00,gi01sumo,59.998,-39.481,-2147483647,-2147483647,-4.81,0.49,-0.72,0.5,-0.52,-1.87,-1.6,-0.01,2024/06/03 04:21:58.121,0.14,0.55,-0.67,0.54,0.17,-0.47,0.03,0.03,0.03,-0.95,18.49,0.95,-0.24,0.39,0.41,-0.77,0.46,0.11,-0.49,-0.02,-0.02,-0.01,-0.97,17.32,-2.08,-3.54,-3.65,-0.01,-0.01,-0.48,4.0,0.0,0.0,0.01,-0.96,17.86,155.174995,1,0.02,0.01,0.01,0.01,0.0,0.01,0.01,0.01,0.0,0.17,0.54,0.22,0.1,0.39,0.42,0.53,-0.42,-2.47,0.3,0.39,2.52,D0011
2024-06-03 05:21:58+00:00,gi01sumo,59.998,-39.481,-2147483647,-2147483647,-4.81,0.49,-0.72,0.5,-0.78,-1.98,-1.53,-0.01,2024/06/03 05:21:58.517,0.09,0.55,-0.68,0.54,0.13,-0.46,0.03,0.02,0.03,-0.94,18.52,0.53,-0.27,0.42,0.43,-0.76,0.46,0.06,-0.49,-0.02,-0.02,-0.01,-0.97,17.47,-2.3,-3.62,-3.5,-0.02,-0.02,-0.48,4.0,0.0,0.0,0.01,-0.96,17.95,155.216662,1,0.02,0.01,0.01,0.01,0.0,0.01,0.01,0.01,0.0,0.16,0.52,0.22,0.11,0.39,0.43,0.54,-0.84,-2.46,0.29,0.41,2.61,D0011
2024-06-03 06:21:57+00:00,gi01sumo,59.998,-39.481,-2147483647,-2147483647,-4.81,0.49,-0.72,0.5,-1.83,-2.52,-1.35,-0.01,2024/06/03 06:21:57.822,0.09,0.54,-0.67,0.53,0.11,-0.47,0.02,0.02,0.03,-0.94,19.12,-0.4,-0.77,0.88,0.44,-0.77,0.46,0.06,-0.49,-0.02,-0.02,-0.01,-0.97,17.97,-3.29,-4.26,-3.63,-0.01,-0.0,-0.48,4.0,0.0,0.0,0.01,-0.96,18.47,155.258329,1,0.01,0.01,0.01,0.01,0.0,0.01,0.01,0.01,0.0,0.17,0.52,0.33,0.1,0.42,0.45,0.59,-2.01,-2.72,0.25,0.47,3.39,D0011
2024-06-03 07:21:58+00:00,gi01sumo,59.998,-39.481,-2147483647,-2147483647,-4.81,0.49,-0.72,0.5,-2.26,-2.81,-1.35,-0.02,2024/06/03 07:21:58.269,0.09,0.54,-0.68,0.53,0.13,-0.45,0.02,0.03,0.03,-0.94,18.76,-0.28,-1.13,0.89,0.43,-0.76,0.47,0.03,-0.5,-0.02,-0.02,-0.01,-0.97,17.52,-4.27,-4.48,-3.57,-0.03,-0.01,-0.48,4.0,0.0,0.0,0.01,-0.96,18.1,155.299995,1,0.02,0.01,0.01,0.02,0.01,0.01,0.01,0.01,0.0,0.17,0.53,0.32,0.12,0.5,0.45,0.57,-2.47,-2.96,0.26,0.49,3.86,D0011
2024-06-03 08:21:58+00:00,gi01sumo,59.998,-39.481,-2147483647,-2147483647,-4.81,0.49,-0.72,0.5,-1.74,-1.46,-0.42,-0.01,2024/06/03 08:21:58.680,0.01,0.55,-0.67,0.54,0.04,-0.46,0.03,0.03,0.03,-0.94,17.98,-0.04,-0.22,1.83,0.42,-0.77,0.46,-0.03,-0.5,-0.02,-0.02,-0.01,-0.98,16.78,-3.83,-2.66,-2.51,-0.0,-0.01,-0.48,4.0,0.0,0.0,0.01,-0.96,17.33,155.341662,1,0.02,0.01,0.01,0.01,0.01,0.01,0.01,0.01,0.01,0.18,0.4,0.33,0.08,0.58,0.34,0.59,-1.97,-1.2,-0.01,0.56,2.31,D0011
2024-06-03 09:21:57+00:00,gi01sumo,59.998,-39.481,-2147483647,-2147483647,-4.81,0.49,-0.72,0.5,-0.36,0.78,0.9,-0.02,2024/06/03 09:21:57.924,0.3,0.57,-0.66,0.54,0.5,-0.45,0.03,0.03,0.03,-0.93,17.36,2.46,3.75,3.62,0.41,-0.78,0.45,0.08,-0.53,-0.02,-0.02,-0.01,-0.99,15.95,-3.17,-2.19,-1.71,-0.04,-0.03,-0.48,4.0,0.0,0.0,0.01,-0.96,16.65,155.383329,1,0.02,0.02,0.01,0.17,0.01,0.01,0.01,0.01,0.01,0.2,0.81,0.51,0.37,0.73,0.76,0.7,-0.56,1.06,-0.3,0.8,1.24,D0011
2024-06-03 10:21:58+00:00,gi01sumo,59.998,-39.481,-2147483647,-2147483647,-4.81,0.48,-0.72,0.5,-0.14,0.84,1.28,0.01,2024/06/03 10:21:58.212,0.44,0.56,-0.66,0.54,0.49,-0.45,0.03,0.03,0.03,-0.94,15.91,1.87,3.96,3.75,0.41,-0.77,0.45,0.41,-0.5,-0.02,-0.02,-0.01,-0.98,15.26,-1.94,-1.38,-0.99,-0.15,0.05,-0.48,4.0,0.0,0.0,0.01,-0.96,15.62,155.424995,1,0.02,0.02,0.01,0.01,0.01,0.01,0.01,0.01,0.01,0.09,0.81,0.29,0.36,0.52,0.83,0.63,-0.79,1.33,-0.04,0.73,1.55,D0011
2024-06-03 11:21:58+00:00,gi01sumo,59.998,-39.481,-2147483647,-2147483647,-4.81,0.48,-0.72,0.5,-0.44,1.27,1.06,0.01,2024/06/03 11:21:58.550,0.45,0.56,-0.66,0.54,0.51,-0.45,0.03,0.02,0.03,-0.94,16.11,2.54,5.14,4.45,0.41,-0.78,0.46,0.4,-0.51,-0.02,-0.02,-0.01,-0.98,13.9,-3.58,-2.7,-1.73,0.07,-0.07,-0.48,4.0,0.0,0.0,0.01,-0.96,14.78,155.466662,1,0.02,0.02,0.01,0.02,0.01,0.01,0.01,0.01,0.01,0.33,1.09,0.66,0.64,0.8,1.01,0.93,-0.83,1.36,-0.61,0.7,1.7,D0011
2024-06-03 12:21:58+00:00,gi01sumo,59.998,-39.481,-2147483647,-2147483647,-4.81,0.48,-0.72,0.5,-0.44,1.09,1.57,0.09,2024/06/03 12:21:58.539,0.44,0.55,-0.66,0.54,0.49,-0.46,0.03,0.03,0.03,-0.94,13.13,3.53,6.23,5.97,0.42,-0.78,0.46,0.4,-0.49,-0.02,-0.02,-0.01,-0.99,11.58,-4.66,-3.94,-2.33,-0.16,-0.11,-0.47,4.0,0.0,0.0,0.01,-0.96,12.27,155.508329,1,0.02,0.02,0.01,0.01,0.01,0.01,0.01,0.01,0.01,0.23,1.33,1.32,1.07,1.1,1.32,1.13,-1.16,1.54,-0.22,0.83,1.94,D0011
2024-06-03 13:21:58+00:00,gi01sumo,59.998,-39.481,-2147483647,-2147483647,-4.81,0.48,-0.72,0.5,-0.24,0.92,1.28,0.07,2024/06/03 13:21:58.896,0.43,0.55,-0.66,0.54,0.49,-0.46,0.03,0.03,0.03,-0.94,13.37,2.59,4.48,4.36,0.42,-0.79,0.46,0.37,-0.49,-0.02,-0.02,-0.01,-0.98,11.79,-3.01,-1.68,-1.55,-0.09,-0.05,-0.47,4.0,0.0,0.0,0.01,-0.96,12.54,155.549995,1,0.02,0.02,0.01,0.02,0.01,0.01,0.01,0.01,0.01,0.22,0.96,0.49,0.55,0.7,0.91,0.79,-0.83,1.36,-0.16,0.61,1.6,D0011
2024-06-03 14:21:58+00:00,gi01sumo,59.998,-39.481,-2147483647,-2147483647,-4.81,0.48,-0.72,0.5,-0.07,0.9,0.86,0.03,2024/06/03 14:21:58.956,0.12,0.55,-0.66,0.54,0.25,-0.45,0.03,0.02,0.03,-0.93,12.49,2.81,4.33,4.16,0.43,-0.78,0.46,0.05,-0.51,-0.02,-0.02,-0.01,-0.98,10.82,-3.34,-2.43,-2.27,-0.02,-0.08,-0.47,4.0,0.0,0.0,0.01,-0.96,11.62,155.591662,1,0.02,0.02,0.01,0.03,0.01,0.01,0.01,0.01,0.01,0.22,0.97,0.64,0.55,0.84,0.86,0.85,-0.08,1.22,-0.26,0.64,1.25,D0011
2024-06-03 15:21:58+00:00,gi01sumo,59.998,-39.481,-2147483647,-2147483647,-4.81,0.48,-0.73,0.5,-0.15,0.93,0.81,0.02,2024/06/03 15:21:58.667,0.18,0.54,-0.66,0.54,0.26,-0.45,0.03,0.02,0.03,-0.93,11.7,2.09,4.11,3.76,0.42,-0.79,0.46,0.12,-0.5,-0.02,-0.02,-0.01,-0.99,10.6,-2.9,-2.2,-2.01,0.01,-0.03,-0.47,4.0,0.0,0.0,0.01,-0.96,11.15,155.633329,1,0.02,0.02,0.01,0.02,0.01,0.01,0.01,0.01,0.01,0.14,0.9,0.47,0.43,0.7,0.82,0.76,-0.19,1.17,-0.34,0.68,1.23,D0011
2024-06-03 16:21:58+00:00,gi01sumo,59.998,-39.481,-2147483647,-2147483647,-4.81,0.48,-0.72,0.5,-0.07,1.01,2.19,0.09,2024/06/03 16:21:58.449,0.15,0.55,-0.65,0.54,0.28,-0.42,0.03,0.03,0.03,-0.94,11.3,3.62,6.37,6.64,0.41,-0.79,0.45,0.02,-0.49,-0.02,-0.02,-0.01,-0.99,9.59,-3.79,-2.85,-1.29,-0.42,0.16,-0.47,4.0,0.0,0.0,0.01,-0.96,10.58,155.674995,1,0.02,0.02,0.01,0.07,0.01,0.01,0.01,0.01,0.01,0.25,1.48,1.07,1.06,0.95,1.41,1.2,-0.6,2.32,0.32,0.83,2.42,D0011
2024-06-03 17:21:58+00:00,gi01sumo,59.998,-39.481,-2147483647,-2147483647,-4.81,0.5,-0.71,0.5,0.08,0.96,1.82,0.07,2024/06/03 17:21:58.501,0.14,0.57,-0.63,0.54,0.2,-0.45,0.03,0.03,0.03,-0.93,10.85,2.6,5.08,5.49,0.42,-0.79,0.45,0.07,-0.52,-0.02,-0.02,-0.01,-0.99,9.06,-2.46,-2.15,-1.34,-0.28,0.09,-0.49,4.0,0.0,0.0,0.01,-0.95,10.01,155.716662,1,0.02,0.02,0.01,0.02,0.01,0.01,0.01,0.01,0.01,0.24,1.07,0.39,0.67,0.63,1.08,0.95,-0.33,2.0,0.25,0.72,2.04,D0011
2024-06-03 18:21:58+00:00,gi01sumo,59.998,-39.481,-2147483647,-2147483647,-4.81,0.48,-0.72,0.5,-0.02,1.05,1.77,0.07,2024/06/03 18:21:58.598,0.32,0.55,-0.65,0.54,0.36,-0.45,0.03,0.03,0.03,-0.94,10.9,2.58,5.04,4.93,0.41,-0.79,0.45,0.28,-0.49,-0.02,-0.02,-0.01,-0.98,9.01,-2.47,-1.74,-1.34,-0.22,0.09,-0.47,4.0,0.0,0.0,0.01,-0.96,9.99,155.758329,1,0.02,0.02,0.01,0.01,0.01,0.01,0.01,0.01,0.01,0.32,1.06,0.48,0.56,0.66,1.03,0.84,-0.71,1.92,0.1,0.72,2.05,D0011
2024-06-03 19:21:57+00:00,gi01sumo,59.998,-39.481,-2147483647,-2147483647,-4.81,0.48,-0.73,0.5,0.07,1.82,2.92,0.06,2024/06/03 19:21:57.916,0.27,0.56,-0.65,0.55,0.34,-0.43,0.03,0.03,0.04,-0.94,10.01,4.1,8.23,8.55,0.39,-0.8,0.44,0.21,-0.48,-0.02,-0.02,-0.01,-1.0,8.48,-3.88,-2.25,-2.08,-0.31,0.16,-0.46,4.0,0.0,0.0,0.01,-0.96,9.26,155.799995,1,0.02,0.02,0.01,0.02,0.01,0.01,0.01,0.01,0.01,0.21,1.63,1.08,1.28,1.02,1.69,1.54,-0.91,3.34,0.15,0.86,3.47,D0011
2024-06-03 20:21:58+00:00,gi01sumo,59.998,-39.481,-2147483647,-2147483647,-4.81,0.48,-0.72,0.5,-0.12,0.75,0.91,0.02,2024/06/03 20:21:58.191,0.29,0.57,-0.65,0.55,0.34,-0.45,0.03,0.03,0.03,-0.93,10.76,1.59,3.04,2.87,0.39,-0.8,0.45,0.24,-0.49,-0.02,-0.02,-0.01,-0.99,8.76,-1.89,-1.44,-0.85,-0.02,-0.0,-0.47,4.0,0.0,0.0,0.01,-0.96,9.77,155.841662,1,0.02,0.02,0.01,0.01,0.01,0.01,0.01,0.01,0.01,0.27,0.65,0.2,0.2,0.45,0.61,0.52,-0.4,1.11,-0.16,0.82,1.19,D0011
2024-06-03 21:21:57+00:00,gi01sumo,59.998,-39.481,-2147483647,-2147483647,-4.81,0.48,-0.72,0.5,-0.43,0.07,0.54,0.09,2024/06/03 21:21:57.879,0.23,0.56,-0.65,0.55,0.27,-0.45,0.03,0.03,0.03,-0.93,11.74,1.31,2.31,2.35,0.4,-0.8,0.45,0.19,-0.5,-0.02,-0.02,-0.01,-0.99,9.45,-3.1,-2.43,-1.25,-0.07,0.02,-0.47,4.0,0.0,0.0,0.01,-0.96,10.32,155.883329,1,0.02,0.02,0.01,0.01,0.01,0.01,0.01,0.01,0.01,0.37,0.55,0.48,0.26,0.7,0.64,0.46,-0.58,0.36,0.02,0.76,0.68,D0011
2024-06-03 22:21:58+00:00,gi01sumo,59.998,-39.481,-2147483647,-2147483647,-4.81,0.48,-0.72,0.5,-1.27,-0.29,1.06,0.11,2024/06/03 22:21:58.261,0.23,0.55,-0.65,0.54,0.28,-0.46,0.03,0.02,0.03,-0.94,11.48,2.39,3.19,3.49,0.41,-0.78,0.45,0.19,-0.49,-0.02,-0.02,-0.01,-0.98,9.82,-5.28,-3.85,-1.48,-0.2,-0.02,-0.48,4.0,0.0,0.0,0.01,-0.96,10.41,155.924995,1,0.02,0.02,0.01,0.01,0.0,0.01,0.01,0.01,0.01,0.28,0.99,0.89,0.7,1.15,0.9,0.67,-1.65,0.34,0.12,0.63,1.69,D0011
2024-06-03 23:21:58+00:00,gi01sumo,59.998,-39.481,-2147483647,-2147483647,-4.81,0.49,-0.72,0.5,-0.62,0.53,0.96,0.02,2024/06/03 23:21:58.291,0.18,0.55,-0.65,0.54,0.22,-0.46,0.03,0.03,0.03,-0.93,11.97,2.23,4.51,3.92,0.42,-0.78,0.45,0.14,-0.49,-0.02,-0.02,-0.01,-0.98,11.2,-4.34,-3.43,-1.98,-0.19,0.04,-0.48,4.0,0.0,0.0,0.01,-0.96,11.59,155.966662,1,0.02,0.02,0.01,0.01,0.01,0.01,0.01,0.01,0.01,0.1,0.93,1.18,0.53,0.97,1.03,0.77,-0.79,0.96,-0.22,0.68,1.26,D0011
2024-06-04 00:21:58+00:00,gi01sumo,59.998,-39.481,-2147483647,-2147483647,-4.81,0.49,-0.72,0.5,-0.89,0.12,0.98,0.01,2024/06/04 00:21:58.724,0.31,0.57,-0.64,0.54,0.4,-0.45,0.03,0.03,0.04,-0.93,11.72,2.36,4.34,4.2,0.41,-0.79,0.45,0.18,-0.5,-0.02,-0.02,-0.01,-0.98,11.39,-5.15,-3.68,-2.2,-0.21,0.21,-0.47,4.0,0.0,0.0,0.01,-0.96,11.53,156.008329,1,0.02,0.02,0.01,0.04,0.01,0.01,0.01,0.01,0.01,0.05,0.96,1.52,0.76,1.11,1.16,0.81,-1.22,0.52,-0.05,0.77,1.33,D0011
2024-06-04 01:21:58+00:00,gi01sumo,59.998,-39.481,-2147483647,-2147483647,-4.81,0.49,-0.72,0.5,-0.86,0.05,0.92,-0.0,2024/06/04 01:21:58.489,0.3,0.56,-0.65,0.54,0.36,-0.44,0.03,0.03,0.04,-0.93,11.79,2.37,3.85,3.82,0.42,-0.79,0.45,0.22,-0.5,-0.02,-0.02,-0.01,-0.98,11.5,-5.03,-3.68,-1.98,-0.19,0.16,-0.47,4.0,0.0,0.0,0.01,-0.96,11.64,156.049995,1,0.02,0.02,0.01,0.02,0.01,0.01,0.01,0.01,0.01,0.04,0.92,1.36,0.67,1.09,1.06,0.74,-1.17,0.47,0.0,0.66,1.27,D0011
2024-06-04 02:21:57+00:00,gi01sumo,59.998,-39.481,-2147483647,-2147483647,-4.81,0.49,-0.72,0.5,-1.05,-0.14,0.94,0.0,2024/06/04 02:21:57.831,0.17,0.55,-0.64,0.54,0.21,-0.45,0.03,0.03,0.03,-0.94,11.36,2.0,3.38,3.5,0.42,-0.79,0.45,0.13,-0.49,-0.02,-0.02,-0.01,-0.98,10.8,-5.19,-3.76,-1.74,-0.19,0.06,-0.47,4.0,0.0,0.0,0.01,-0.96,11.08,156.091662,1,0.02,0.02,0.01,0.01,0.01,0.01,0.01,0.01,0.01,0.1,0.96,0.93,0.67,1.11,0.94,0.67,-1.33,0.48,0.05,0.71,1.42,D0011
2024-06-04 03:21:57+00:00,gi01sumo,59.998,-39.481,-2147483647,-2147483647,-4.81,0.49,-0.72,0.5,-1.41,-0.15,1.15,-0.0,2024/06/04 03:21:57.937,0.26,0.57,-0.64,0.55,0.3,-0.43,0.03,0.03,0.03,-0.93,11.3,1.83,3.63,4.12,0.41,-0.8,0.45,0.14,-0.49,-0.02,-0.02,-0.01,-0.99,10.72,-5.67,-4.09,-1.69,-0.24,0.05,-0.47,4.0,0.0,0.0,0.01,-0.96,11.01,156.133329,1,0.02,0.02,0.01,0.02,0.01,0.01,0.01,0.01,0.01,0.08,1.01,1.12,0.88,1.24,1.03,0.75,-1.77,0.43,-0.01,0.72,1.82,D0011
2024-06-04 04:21:58+00:00,gi01sumo,59.998,-39.481,-2147483647,-2147483647,-4.81,0.49,-0.72,0.5,-1.16,0.29,1.13,-0.01,2024/06/04 04:21:58.103,0.23,0.57,-0.64,0.54,0.27,-0.45,0.03,0.03,0.04,-0.93,12.12,2.19,5.25,4.7,0.41,-0.79,0.45,0.19,-0.49,-0.02,-0.02,-0.01,-0.99,10.95,-5.42,-4.56,-2.2,-0.26,0.31,-0.47,4.0,0.0,0.0,0.01,-0.96,11.36,156.174995,1,0.02,0.02,0.01,0.01,0.01,0.01,0.01,0.01,0.01,0.2,1.06,1.73,0.92,1.15,1.3,0.9,-1.43,0.79,-0.21,0.74,1.65,D0011
2024-06-04 05:21:58+00:00,gi01sumo,59.998,-39.481,-2147483647,-2147483647,-4.81,0.49,-0.72,0.5,-1.37,0.99,1.53,-0.0,2024/06/04 05:21:58.597,0.23,0.56,-0.64,0.55,0.28,-0.45,0.03,0.03,0.04,-0.93,12.4,3.23,5.36,5.59,0.41,-0.79,0.45,0.17,-0.49,-0.02,-0.02,-0.01,-0.99,11.5,-6.58,-3.94,-2.92,-0.24,0.08,-0.47,4.0,0.0,0.0,0.01,-0.96,11.93,156.216662,1,0.02,0.02,0.01,0.01,0.01,0.01,0.01,0.01,0.01,0.13,1.34,2.28,0.99,1.33,1.42,1.11,-1.61,1.49,-0.63,0.8,2.29,D0011
2024-06-04 06:21:58+00:00,gi01sumo,59.998,-39.481,-2147483647,-2147483647,-4.81,0.49,-0.72,0.5,-1.23,0.55,1.27,-0.01,2024/06/04 06:21:58.259,0.19,0.58,-0.64,0.55,0.24,-0.44,0.03,0.03,0.04,-0.94,12.04,2.61,4.9,5.02,0.4,-0.8,0.45,0.12,-0.49,-0.02,-0.02,-0.01,-0.98,11.38,-5.62,-3.55,-2.22,-0.26,0.2,-0.47,4.0,0.0,0.0,0.01,-0.96,11.78,156.258329,1,0.02,0.02,0.01,0.02,0.01,0.01,0.01,0.01,0.01,0.11,1.15,1.76,0.81,1.15,1.29,0.98,-1.45,1.11,-0.37,0.77,1.86,D0011
2024-06-04 07:21:58+00:00,gi01sumo,59.998,-39.481,-2147483647,-2147483647,-4.81,0.49,-0.72,0.5,-1.59,-0.25,1.52,-0.0,2024/06/04 07:21:58.475,0.13,0.57,-0.63,0.55,0.17,-0.45,0.03,0.03,0.03,-0.93,11.76,2.53,5.12,5.17,0.4,-0.8,0.44,0.07,-0.49,-0.02,-0.02,-0.01,-0.99,10.95,-7.54,-5.2,-2.2,-0.39,0.09,-0.47,4.0,0.0,0.0,0.01,-0.96,11.4,156.299995,1,0.02,0.02,0.01,0.01,0.01,0.01,0.01,0.01,0.01,0.15,1.33,2.0,1.43,1.54,1.36,0.99,-2.04,0.86,0.15,0.81,2.22,D0011
2024-06-04 08:21:58+00:00,gi01sumo,59.998,-39.481,-2147483647,-2147483647,-4.81,0.49,-0.72,0.5,-1.54,-0.2,1.44,-0.01,2024/06/04 08:21:58.683,0.13,0.6,-0.62,0.56,0.18,-0.44,0.03,0.03,0.04,-0.93,11.34,2.32,4.9,4.96,0.39,-0.81,0.44,0.08,-0.49,-0.02,-0.03,-0.01,-0.99,10.76,-6.9,-4.98,-2.33,-0.37,0.05,-0.47,4.0,0.0,0.0,0.01,-0.96,11.04,156.341662,1,0.03,0.02,0.02,0.01,0.01,0.01,0.01,0.01,0.01,0.08,1.26,1.87,1.36,1.5,1.31,0.95,-1.94,0.83,0.11,0.92,2.12,D0011
2024-06-04 09:21:58+00:00,gi01sumo,59.998,-39.481,-2147483647,-2147483647,-4.81,0.49,-0.72,0.5,-1.59,-0.21,1.5,-0.0,2024/06/04 09:21:58.139,0.18,0.56,-0.64,0.55,0.23,-0.45,0.03,0.03,0.04,-0.93,11.74,2.78,4.73,4.81,0.4,-0.8,0.44,0.13,-0.49,-0.02,-0.02,-0.01,-0.98,11.14,-7.31,-5.67,-2.27,-0.37,0.08,-0.47,4.0,0.0,0.0,0.01,-0.96,11.39,156.383329,1,0.02,0.02,0.01,0.01,0.01,0.01,0.01,0.01,0.01,0.1,1.28,1.98,1.42,1.53,1.35,0.99,-2.06,0.76,0.12,0.79,2.2,D0011
2024-06-04 10:21:58+00:00,gi01sumo,59.998,-39.481,-2147483647,-2147483647,-4.81,0.49,-0.72,0.5,-1.33,0.06,1.58,0.0,2024/06/04 10:21:58.487,0.21,0.58,-0.63,0.55,0.27,-0.45,0.03,0.03,0.03,-0.93,12.2,4.5,6.31,6.17,0.4,-0.8,0.44,0.14,-0.49,-0.02,-0.02,-0.01,-0.99,10.93,-7.7,-6.15,-2.84,-0.63,0.5,-0.47,4.0,0.0,0.0,0.01,-0.96,11.75,156.424995,1,0.02,0.02,0.01,0.03,0.01,0.01,0.01,0.01,0.01,0.25,1.43,3.21,1.84,1.64,1.75,1.17,-1.82,0.97,0.09,0.71,2.07,D0011
2024-06-04 11:21:58+00:00,gi01sumo,59.998,-39.481,-2147483647,-2147483647,-4.81,0.49,-0.72,0.5,-1.28,1.09,1.81,0.01,2024/06/04 11:21:58.737,0.24,0.58,-0.63,0.54,0.29,-0.45,0.03,0.03,0.04,-0.93,11.65,3.84,6.94,6.89,0.4,-0.8,0.44,0.16,-0.5,-0.02,-0.02,-0.01,-0.99,10.9,-7.3,-5.74,-2.54,-0.56,0.05,-0.47,4.0,0.0,0.0,0.01,-0.96,11.26,156.466662,1,0.02,0.02,0.01,0.02,0.01,0.01,0.01,0.01,0.01,0.1,1.64,3.12,1.4,1.58,1.75,1.32,-1.63,1.76,-0.51,0.74,2.45,D0011
2024-06-04 12:21:57+00:00,gi01sumo,59.998,-39.481,-2147483647,-2147483647,-4.81,0.49,-0.72,0.5,-1.33,0.62,1.41,0.03,2024/06/04 12:21:57.926,0.2,0.58,-0.62,0.56,0.25,-0.45,0.03,0.03,0.04,-0.93,11.21,2.39,5.09,5.17,0.38,-0.81,0.44,0.16,-0.49,-0.02,-0.02,-0.01,-0.99,10.39,-6.03,-4.14,-2.13,-0.3,0.22,-0.47,4.0,0.0,0.0,0.01,-0.96,10.81,156.508329,1,0.03,0.02,0.01,0.01,0.01,0.01,0.01,0.01,0.01,0.12,1.22,2.15,0.94,1.25,1.41,1.04,-1.58,1.22,-0.4,0.8,2.03,D0011
2024-06-04 13:21:58+00:00,gi01sumo,59.998,-39.481,-2147483647,-2147483647,-4.81,0.49,-0.72,0.5,-1.46,0.66,1.53,0.04,2024/06/04 13:21:58.591,0.19,0.59,-0.62,0.55,0.24,-0.45,0.03,0.03,0.04,-0.93,12.14,2.81,6.29,6.04,0.38,-0.81,0.44,0.14,-0.5,-0.02,-0.03,-0.01,-0.98,10.49,-6.73,-4.65,-2.54,-0.4,0.27,-0.47,4.0,0.0,0.0,0.01,-0.96,11.41,156.549995,1,0.03,0.02,0.02,0.01,0.01,0.01,0.01,0.01,0.01,0.31,1.43,2.47,1.21,1.4,1.55,1.17,-1.71,1.33,-0.43,0.86,2.21,D0011
2024-06-04 14:21:57+00:00,gi01sumo,59.998,-39.481,-2147483647,-2147483647,-4.81,0.49,-0.72,0.5,-1.41,0.21,1.52,0.06,2024/06/04 14:21:57.940,0.16,0.58,-0.62,0.56,0.22,-0.45,0.03,0.03,0.03,-0.93,12.82,3.55,6.35,6.22,0.37,-0.82,0.44,0.1,-0.5,-0.02,-0.03,-0.01,-0.98,11.53,-7.42,-6.46,-3.08,-0.56,0.4,-0.48,4.0,0.0,0.0,0.01,-0.96,12.22,156.591662,1,0.03,0.03,0.02,0.01,0.01,0.01,0.01,0.01,0.01,0.18,1.42,2.87,1.6,1.56,1.64,1.18,-1.77,1.13,-0.1,0.93,2.11,D0011
2024-06-04 15:21:58+00:00,gi01sumo,59.998,-39.481,-2147483647,-2147483647,-4.81,0.49,-0.72,0.5,-1.87,-0.25,1.92,0.06,2024/06/04 15:21:58.488,0.19,0.6,-0.63,0.56,0.27,-0.46,0.03,0.03,0.03,-0.93,13.19,3.26,6.34,6.64,0.38,-0.81,0.43,0.12,-0.51,-0.02,-0.03,-0.01,-0.98,11.75,-9.16,-6.52,-2.72,-0.64,0.16,-0.48,4.0,0.0,0.0,0.01,-0.96,12.48,156.633329,1,0.03,0.03,0.02,0.02,0.01,0.01,0.01,0.01,0.01,0.2,1.64,3.29,2.24,1.93,1.73,1.24,-2.5,0.99,0.19,0.9,2.69,D0011
2024-06-04 16:21:58+00:00,gi01sumo,59.998,-39.481,-2147483647,-2147483647,-4.81,0.49,-0.72,0.5,-1.59,-0.13,1.4,0.07,2024/06/04 16:21:58.621,6.28,0.59,-0.62,0.55,0.05,-0.46,0.03,0.03,0.03,-0.93,12.44,2.97,4.96,5.13,0.4,-0.81,0.44,-0.06,-0.5,-0.02,-0.02,-0.01,-0.99,10.97,-7.38,-4.96,-2.19,-0.38,0.11,-0.48,4.0,0.0,0.0,0.01,-0.96,11.57,156.674995,1,0.03,0.02,0.01,0.02,0.01,0.01,0.01,0.01,0.01,0.23,1.26,1.84,1.29,1.51,1.31,0.95,-1.82,1.08,0.01,0.8,2.12,D0011
2024-06-04 17:21:58+00:00,gi01sumo,59.998,-39.481,-2147483647,-2147483647,-4.81,0.49,-0.72,0.5,-1.48,1.13,1.86,0.06,2024/06/04 17:21:58.798,0.19,0.6,-0.63,0.55,0.24,-0.45,0.03,0.03,0.04,-0.93,12.28,4.59,7.27,7.59,0.38,-0.81,0.44,0.13,-0.51,-0.02,-0.03,-0.01,-0.99,11.09,-8.32,-6.17,-3.47,-0.69,0.28,-0.48,4.0,0.0,0.0,0.01,-0.96,11.68,156.716662,1,0.03,0.02,0.02,0.01,0.01,0.01,0.01,0.01,0.01,0.15,1.85,3.85,1.84,1.76,1.99,1.46,-1.72,1.87,-0.61,0.94,2.62,D0011
2024-06-04 18:21:57+00:00,gi01sumo,59.998,-39.481,-2147483647,-2147483647,-4.81,0.49,-0.72,0.5,-1.42,0.75,1.79,0.06,2024/06/04 18:21:57.952,6.27,0.6,-0.61,0.56,0.05,-0.45,0.04,0.03,0.03,-0.92,12.41,4.88,7.55,7.38,0.38,-0.82,0.43,-0.07,-0.5,-0.03,-0.03,-0.01,-0.99,11.04,-8.4,-6.3,-3.58,-0.99,0.51,-0.48,4.0,0.0,0.0,0.01,-0.96,11.77,156.758329,1,0.03,0.03,0.02,0.02,0.01,0.01,0.01,0.01,0.01,0.21,1.82,4.14,2.12,1.82,2.08,1.44,-1.41,1.93,-0.35,0.89,2.41,D0011
2024-06-04 19:21:58+00:00,gi01sumo,59.998,-39.481,-2147483647,-2147483647,-4.81,0.49,-0.72,0.5,-1.42,-0.03,1.67,0.07,2024/06/04 19:21:58.125,6.2,0.61,-0.6,0.56,-0.03,-0.46,0.04,0.04,0.03,-0.93,12.03,3.91,6.77,6.43,0.38,-0.82,0.43,-0.14,-0.5,-0.03,-0.03,-0.01,-0.99,10.77,-7.86,-6.63,-2.95,-0.62,0.43,-0.48,4.0,0.0,0.0,0.01,-0.96,11.47,156.799995,1,0.03,0.03,0.02,0.02,0.01,0.01,0.01,0.01,0.01,0.19,1.47,3.19,1.98,1.69,1.75,1.21,-1.6,1.5,0.14,0.94,2.19,D0011
2024-06-04 20:21:58+00:00,gi01sumo,59.998,-39.481,-2147483647,-2147483647,-4.81,0.49,-0.72,0.5,-3.17,-0.49,2.5,0.05,2024/06/04 20:21:58.379,6.16,0.63,-0.58,0.56,-0.07,-0.45,0.04,0.04,0.04,-0.92,11.53,3.0,6.48,7.53,0.36,-0.84,0.42,-0.18,-0.5,-0.03,-0.03,-0.01,-0.99,10.4,-10.54,-6.6,-2.25,-0.75,0.0,-0.48,4.0,0.0,0.0,0.01,-0.96,10.96,156.841662,1,0.04,0.04,0.02,0.02,0.01,0.01,0.01,0.01,0.01,0.19,1.89,3.6,2.58,2.26,1.8,1.31,-3.38,2.24,0.01,1.11,4.05,D0011
2024-06-04 21:21:58+00:00,gi01sumo,59.998,-39.481,-2147483647,-2147483647,-4.81,0.49,-0.72,0.5,-4.09,-0.76,2.63,0.03,2024/06/04 21:21:58.362,6.18,0.59,-0.6,0.56,-0.05,-0.45,0.04,0.03,0.04,-0.92,11.45,1.88,5.35,6.57,0.37,-0.83,0.43,-0.16,-0.5,-0.03,-0.03,-0.01,-0.99,10.63,-9.38,-5.61,-1.85,-0.55,0.03,-0.48,4.0,0.0,0.0,0.01,-0.96,11.02,156.883329,1,0.03,0.03,0.02,0.02,0.01,0.01,0.01,0.01,0.01,0.11,1.91,2.67,2.03,2.14,1.62,1.12,-4.39,2.2,-0.17,1.01,4.92,D0011
2024-06-04 22:21:58+00:00,gi01sumo,59.998,-39.481,-2147483647,-2147483647,-4.81,0.5,-0.71,0.5,-7.41,-2.53,3.81,0.0,2024/06/04 22:21:58.606,6.15,0.63,-0.58,0.57,-0.05,-0.44,0.04,0.04,0.05,-0.92,10.64,0.6,3.3,7.99,0.37,-0.86,0.42,-0.28,-0.51,-0.03,-0.03,-0.02,-0.99,9.34,-12.54,-6.53,-0.48,-0.37,-0.13,-0.48,4.0,0.0,0.0,0.01,-0.96,9.98,156.924995,1,0.03,0.04,0.02,0.04,0.01,0.01,0.01,0.01,0.01,0.23,2.13,2.15,1.41,2.15,1.55,1.1,-8.26,2.83,-0.0,1.09,8.73,D0011
2024-06-04 23:21:58+00:00,gi01sumo,59.998,-39.481,-2147483647,-2147483647,-4.81,0.5,-0.71,0.5,-4.68,-1.12,3.11,0.01,2024/06/04 23:21:58.175,6.17,0.63,-0.56,0.56,-0.05,-0.45,0.05,0.04,0.04,-0.91,9.08,2.35,5.58,7.92,0.36,-0.85,0.42,-0.19,-0.51,-0.04,-0.04,-0.01,-1.0,8.34,-11.78,-6.9,-1.8,-0.7,-0.12,-0.48,4.0,0.0,0.0,0.01,-0.96,8.68,156.966662,1,0.04,0.04,0.02,0.02,0.01,0.01,0.01,0.01,0.01,0.1,2.22,3.37,2.42,2.45,1.79,1.27,-5.14,2.52,0.0,1.21,5.73,D0011
2024-06-05 00:21:57+00:00,gi01sumo,59.998,-39.481,-2147483647,-2147483647,-4.81,0.49,-0.71,0.5,-2.41,-0.28,2.02,0.01,2024/06/05 00:21:57.731,6.13,0.64,-0.57,0.58,-0.08,-0.43,0.05,0.05,0.04,-0.91,9.57,2.67,5.81,6.35,0.34,-0.87,0.41,-0.23,-0.51,-0.04,-0.04,-0.01,-1.0,8.68,-9.28,-5.51,-2.24,-0.57,0.02,-0.47,4.0,0.0,0.0,0.02,-0.96,9.09,157.008329,1,0.04,0.04,0.02,0.02,0.01,0.01,0.01,0.01,0.01,0.13,1.59,2.72,2.02,1.89,1.58,1.15,-2.51,1.92,0.0,1.39,3.16,D0011
2024-06-05 01:21:57+00:00,gi01sumo,59.998,-39.481,-2147483647,-2147483647,-4.81,0.49,-0.72,0.5,-1.59,0.21,1.67,0.02,2024/06/05 01:21:57.942,6.14,0.66,-0.54,0.57,-0.08,-0.43,0.05,0.05,0.04,-0.9,8.64,3.18,5.99,6.53,0.31,-0.88,0.41,-0.22,-0.51,-0.04,-0.04,-0.01,-1.01,7.8,-7.96,-6.09,-3.18,-0.62,0.3,-0.47,4.0,0.0,0.0,0.01,-0.96,8.14,157.049995,1,0.05,0.04,0.02,0.02,0.01,0.01,0.01,0.01,0.02,0.13,1.49,2.83,1.72,1.66,1.68,1.23,-1.52,1.71,-0.11,1.61,2.3,D0011
2024-06-05 02:21:58+00:00,gi01sumo,59.998,-39.481,-2147483647,-2147483647,-4.81,0.49,-0.72,0.5,-1.68,-0.1,1.58,0.01,2024/06/05 02:21:58.606,6.19,0.64,-0.55,0.57,-0.03,-0.42,0.05,0.05,0.04,-0.91,12.22,2.96,5.51,5.62,0.32,-0.88,0.41,-0.17,-0.5,-0.04,-0.04,-0.01,-1.02,4.64,-7.94,-4.93,-2.46,-0.44,0.09,-0.47,4.0,0.0,0.0,0.01,-0.96,8.45,157.091662,1,0.04,0.04,0.02,0.02,0.01,0.01,0.01,0.01,0.02,1.08,1.37,2.28,1.67,1.65,1.47,1.04,-1.81,1.43,0.01,1.63,2.31,D0011
2024-06-05 03:21:58+00:00,gi01sumo,59.998,-39.481,-2147483647,-2147483647,-4.81,0.49,-0.72,0.5,-1.5,0.76,1.83,0.13,2024/06/05 03:21:58.345,6.18,0.66,-0.57,0.58,-0.03,-0.42,0.05,0.04,0.04,-0.92,13.86,3.8,8.28,7.22,0.34,-0.85,0.41,-0.17,-0.5,-0.04,-0.04,-0.01,-1.01,0.1,-8.4,-6.39,-3.12,-0.8,0.51,-0.47,4.0,0.0,0.0,0.02,-0.96,6.09,157.133329,1,0.04,0.04,0.02,0.02,0.01,0.01,0.01,0.01,0.01,2.33,1.8,3.97,2.02,1.78,2.04,1.44,-1.3,2.09,-0.39,1.54,2.49,D0011
2024-06-05 04:21:58+00:00,gi01sumo,59.998,-39.481,-2147483647,-2147483647,-4.81,0.49,-0.72,0.5,-1.77,-0.04,1.36,0.01,2024/06/05 04:21:58.077,6.2,0.63,-0.59,0.57,-0.03,-0.43,0.04,0.04,0.04,-0.92,12.51,2.1,4.38,4.37,0.35,-0.82,0.42,-0.15,-0.5,-0.03,-0.03,-0.01,-1.0,0.35,-6.84,-4.33,-1.83,-0.28,0.08,-0.47,4.0,0.0,0.0,0.01,-0.96,7.13,157.174995,1,0.04,0.03,0.02,0.02,0.01,0.01,0.01,0.01,0.01,1.8,1.14,1.41,1.06,1.41,1.15,0.83,-1.83,1.25,-0.17,1.31,2.22,D0011
2024-06-05 05:21:57+00:00,gi01sumo,59.998,-39.481,-2147483647,-2147483647,-4.81,0.49,-0.72,0.5,-1.85,-0.11,1.45,-0.03,2024/06/05 05:21:57.860,6.14,0.59,-0.61,0.56,-0.09,-0.43,0.04,0.04,0.04,-0.92,13.34,2.22,4.38,4.87,0.38,-0.85,0.43,-0.2,-0.49,-0.03,-0.03,-0.01,-1.01,0.22,-7.26,-4.45,-1.98,-0.34,0.07,-0.47,4.0,0.0,0.0,0.01,-0.96,7.45,157.216662,1,0.03,0.03,0.02,0.02,0.01,0.01,0.01,0.01,0.01,1.98,1.19,1.52,1.22,1.44,1.21,0.87,-1.86,1.41,-0.11,1.15,2.34,D0011
2024-06-05 06:21:58+00:00,gi01sumo,59.998,-39.481,-2147483647,-2147483647,-4.81,0.49,-0.72,0.5,-2.86,-0.44,1.83,0.01,2024/06/05 06:21:58.325,6.17,0.61,-0.59,0.56,-0.03,-0.44,0.04,0.04,0.04,-0.92,13.28,2.03,4.1,4.95,0.37,-0.83,0.43,-0.17,-0.49,-0.04,-0.03,-0.01,-1.01,1.78,-6.96,-4.62,-1.51,-0.27,0.05,-0.47,4.0,0.0,0.0,0.01,-0.96,7.58,157.258329,1,0.03,0.03,0.02,0.02,0.01,0.01,0.01,0.01,0.01,1.47,1.32,1.51,1.15,1.55,1.22,0.84,-3.0,1.59,-0.18,1.21,3.4,D0011
2024-06-05 07:21:57+00:00,gi01sumo,59.998,-39.481,-2147483647,-2147483647,-4.81,0.49,-0.72,0.5,-1.86,-0.05,1.53,0.08,2024/06/05 07:21:57.776,6.15,0.63,-0.6,0.57,-0.07,-0.42,0.04,0.04,0.04,-0.92,13.49,2.53,5.09,4.76,0.35,-0.84,0.42,-0.2,-0.5,-0.03,-0.03,-0.01,-1.0,-1.03,-7.47,-5.14,-2.15,-0.39,0.08,-0.47,4.0,0.0,0.0,0.01,-0.96,5.94,157.299995,1,0.04,0.03,0.02,0.02,0.01,0.01,0.01,0.01,0.01,2.59,1.25,1.87,1.38,1.55,1.32,0.92,-1.9,1.49,-0.12,1.28,2.42,D0011
2024-06-05 08:21:58+00:00,gi01sumo,59.998,-39.481,-2147483647,-2147483647,-4.81,0.49,-0.72,0.5,-2.32,-0.28,1.4,-0.0,2024/06/05 08:21:58.202,6.16,0.59,-0.6,0.56,-0.06,-0.43,0.04,0.04,0.04,-0.93,9.55,1.08,3.49,4.02,0.35,-0.83,0.42,-0.19,-0.5,-0.03,-0.03,-0.01,-1.0,5.84,-6.29,-3.53,-1.29,-0.16,0.07,-0.46,4.0,0.0,0.0,0.01,-0.96,7.6,157.341662,1,0.04,0.03,0.02,0.02,0.01,0.01,0.01,0.01,0.01,0.66,1.06,0.9,0.81,1.25,0.98,0.68,-2.39,1.31,-0.24,1.25,2.73,D0011
2024-06-05 09:21:57+00:00,gi01sumo,59.998,-39.481,-2147483647,-2147483647,-4.81,0.49,-0.72,0.5,-0.74,0.32,0.8,0.01,2024/06/05 09:21:57.793,6.18,0.64,-0.58,0.56,-0.04,-0.42,0.05,0.04,0.04,-0.92,8.73,2.6,3.44,2.66,0.33,-0.86,0.41,-0.2,-0.5,-0.03,-0.03,-0.01,-1.02,6.32,-3.85,-2.42,-1.19,-0.09,0.09,-0.46,4.0,0.0,0.0,0.01,-0.96,7.54,157.383329,1,0.04,0.04,0.02,0.02,0.01,0.01,0.01,0.01,0.01,0.31,0.71,0.65,0.42,0.85,0.8,0.56,-0.63,0.9,-0.19,1.39,1.12,D0011
2024-06-05 10:21:58+00:00,gi01sumo,59.998,-39.481,-2147483647,-2147483647,-4.81,0.49,-0.72,0.5,-0.72,0.42,0.88,0.02,2024/06/05 10:21:58.288,6.16,0.61,-0.59,0.56,-0.06,-0.43,0.04,0.04,0.04,-0.92,8.77,2.06,3.61,3.27,0.35,-0.84,0.42,-0.19,-0.5,-0.03,-0.03,-0.01,-1.0,5.51,-4.12,-2.7,-1.32,-0.12,0.07,-0.47,4.0,0.0,0.0,0.01,-0.96,7.02,157.424995,1,0.04,0.03,0.02,0.02,0.01,0.01,0.01,0.01,0.01,0.45,0.79,0.79,0.46,0.88,0.86,0.63,-0.58,1.03,-0.22,1.35,1.21,D0011
2024-06-05 11:21:57+00:00,gi01sumo,59.998,-39.481,-2147483647,-2147483647,-4.81,0.48,-0.72,0.5,-0.14,0.41,0.45,0.01,2024/06/05 11:21:57.774,6.16,0.61,-0.59,0.58,-0.06,-0.42,0.04,0.04,0.04,-0.92,12.07,1.86,2.61,2.27,0.35,-0.83,0.42,-0.19,-0.5,-0.03,-0.03,-0.01,-1.01,-2.84,-2.08,-1.68,-1.29,-0.01,-0.02,-0.46,4.0,0.0,0.0,0.01,-0.96,4.73,157.466662,1,0.04,0.03,0.02,0.02,0.01,0.01,0.01,0.01,0.01,2.51,0.56,0.2,0.21,0.5,0.56,0.46,-0.0,0.61,-0.15,1.37,0.62,D0011
2024-06-05 12:21:58+00:00,gi01sumo,59.998,-39.481,-2147483647,-2147483647,-4.81,0.48,-0.73,0.5,0.38,2.23,2.54,0.07,2024/06/05 12:21:58.084,6.11,0.63,-0.58,0.58,-0.11,-0.42,0.05,0.04,0.04,-0.92,12.59,3.88,7.34,6.84,0.34,-0.87,0.41,-0.25,-0.5,-0.04,-0.04,-0.01,-1.02,-2.91,-3.21,-2.27,-1.94,-0.17,0.19,-0.46,4.0,0.0,0.0,0.02,-0.97,4.11,157.508329,1,0.04,0.04,0.02,0.02,0.01,0.01,0.01,0.01,0.01,3.5,1.32,0.88,1.36,0.9,1.3,1.29,1.1,3.2,-0.2,1.42,3.39,D0011
2024-06-05 13:21:58+00:00,gi01sumo,59.998,-39.481,-2147483647,-2147483647,-4.81,0.48,-0.73,0.5,1.19,2.55,2.46,-0.05,2024/06/05 13:21:58.400,6.05,0.62,-0.57,0.58,-0.17,-0.41,0.05,0.04,0.04,-0.92,15.66,6.91,9.11,7.44,0.34,-0.86,0.41,-0.29,-0.49,-0.04,-0.04,-0.02,-1.01,0.37,-3.53,-2.38,-1.8,-0.56,0.18,-0.45,4.0,0.0,0.0,0.01,-0.97,10.21,157.549995,1,0.04,0.04,0.02,0.02,0.01,0.01,0.01,0.01,0.01,3.1,1.53,2.57,1.87,1.54,1.73,1.31,2.14,3.04,-0.09,1.53,3.71,D0011
2024-06-05 14:21:57+00:00,gi01sumo,59.998,-39.481,-2147483647,-2147483647,-4.81,0.48,-0.73,0.5,1.5,2.87,2.48,0.02,2024/06/05 14:21:57.942,5.8,0.61,-0.56,0.57,-0.3,-0.41,0.05,0.04,0.05,-0.9,8.08,6.28,8.68,6.72,0.33,-0.89,0.41,-0.6,-0.49,-0.05,-0.03,-0.02,-1.02,7.27,-3.66,-2.4,-1.54,-0.56,0.11,-0.45,4.0,0.0,0.0,0.01,-0.97,7.58,157.591662,1,0.04,0.04,0.02,0.05,0.01,0.01,0.01,0.01,0.02,0.14,1.56,2.51,1.54,1.6,1.7,1.11,3.28,2.4,-0.18,1.54,4.07,D0011
2024-06-05 15:21:58+00:00,gi01sumo,59.998,-39.481,-2147483647,-2147483647,-4.81,0.48,-0.73,0.5,1.95,2.71,2.08,0.02,2024/06/05 15:21:58.534,6.12,0.64,-0.58,0.58,-0.05,-0.39,0.05,0.04,0.06,-0.91,7.87,7.13,7.29,7.03,0.3,-0.88,0.4,-0.32,-0.52,-0.04,-0.04,-0.03,-1.02,6.89,-4.13,-2.03,-2.36,-0.11,-0.01,-0.45,4.0,0.0,0.0,0.01,-0.97,7.28,157.633329,1,0.04,0.04,0.02,0.06,0.02,0.01,0.01,0.01,0.02,0.16,1.29,1.79,0.85,2.05,1.31,1.37,2.7,2.7,-0.03,1.68,3.82,D0011
2024-06-05 16:21:58+00:00,gi01sumo,59.998,-39.481,-2147483647,-2147483647,-4.81,0.47,-0.73,0.5,0.74,2.83,3.3,0.0,2024/06/05 16:21:58.029,0.11,0.64,-0.58,0.59,0.29,-0.38,0.05,0.05,0.06,-0.91,7.88,6.42,10.09,9.74,0.27,-0.88,0.4,-0.17,-0.5,-0.04,-0.05,-0.02,-1.02,6.97,-4.61,-3.14,-2.2,-0.33,0.28,-0.45,4.0,0.0,0.0,0.01,-0.97,7.36,157.674995,1,0.05,0.04,0.03,0.11,0.02,0.01,0.01,0.01,0.02,0.14,1.95,2.48,2.57,1.46,1.83,1.85,0.44,4.37,-0.12,1.67,4.39,D0011
2024-06-05 17:21:57+00:00,gi01sumo,59.998,-39.481,-2147483647,-2147483647,-4.81,0.47,-0.73,0.49,0.41,2.83,3.08,0.07,2024/06/05 17:21:57.919,6.17,0.64,-0.54,0.58,0.0,-0.39,0.06,0.06,0.06,-0.9,15.2,4.84,9.59,8.13,0.27,-0.89,0.39,-0.21,-0.51,-0.05,-0.04,-0.03,-1.03,-0.72,-3.88,-3.97,-2.88,-0.3,0.37,-0.45,4.0,0.0,0.0,0.01,-0.97,7.04,157.716662,1,0.05,0.05,0.03,0.03,0.02,0.01,0.01,0.01,0.02,2.84,1.75,1.53,2.26,1.13,1.73,1.65,1.15,4.03,-0.39,1.94,4.21,D0011
2024-06-05 18:21:57+00:00,gi01sumo,59.998,-39.481,-2147483647,-2147483647,-4.81,0.48,-0.73,0.5,0.32,2.34,2.52,0.16,2024/06/05 18:21:57.948,6.16,0.66,-0.54,0.59,-0.04,-0.38,0.06,0.06,0.06,-0.89,15.57,4.09,7.99,7.39,0.28,-0.91,0.4,-0.22,-0.52,-0.05,-0.05,-0.03,-1.03,-1.45,-3.15,-3.04,-3.21,-0.2,0.27,-0.45,4.0,0.0,0.0,0.01,-0.97,6.41,157.758329,1,0.05,0.05,0.02,0.03,0.02,0.01,0.01,0.01,0.02,3.76,1.45,1.14,1.42,0.98,1.46,1.44,0.96,3.29,-0.33,1.78,3.44,D0011
2024-06-05 19:21:58+00:00,gi01sumo,59.998,-39.481,-2147483647,-2147483647,-4.81,0.48,-0.73,0.49,-0.06,2.0,2.85,0.04,2024/06/05 19:21:58.650,6.09,0.66,-0.52,0.58,-0.1,-0.4,0.07,0.06,0.05,-0.89,16.1,3.97,8.35,7.71,0.29,-0.93,0.39,-0.27,-0.51,-0.06,-0.05,-0.02,-1.04,-0.64,-4.05,-4.5,-2.43,-0.4,0.08,-0.45,4.0,0.0,0.0,0.02,-0.97,8.48,157.799995,1,0.05,0.05,0.03,0.02,0.02,0.02,0.01,0.01,0.02,3.21,1.76,0.96,1.34,1.01,1.64,1.35,0.64,3.4,-0.1,1.97,3.46,D0011
2024-06-05 20:21:58+00:00,gi01sumo,59.998,-39.481,-2147483647,-2147483647,-4.81,0.48,-0.73,0.49,-0.29,1.46,2.25,0.15,2024/06/05 20:21:58.464,5.9,0.66,-0.52,0.59,-0.22,-0.4,0.06,0.06,0.06,-0.9,16.47,4.02,8.33,7.79,0.29,-0.91,0.4,-0.47,-0.52,-0.05,-0.04,-0.03,-1.04,0.31,-4.55,-4.26,-2.59,-0.38,0.18,-0.45,4.0,0.0,0.0,0.01,-0.97,8.27,157.841662,1,0.05,0.05,0.03,0.04,0.02,0.02,0.01,0.01,0.02,3.15,1.8,1.43,1.56,1.11,1.81,1.45,0.75,2.58,-0.11,1.97,2.69,D0011
2024-06-05 21:21:58+00:00,gi01sumo,59.998,-39.481,-2147483647,-2147483647,-4.81,0.48,-0.73,0.49,-0.07,1.84,2.92,-0.04,2024/06/05 21:21:58.524,6.17,0.7,-0.51,0.61,-0.02,-0.38,0.07,0.06,0.06,-0.89,15.32,4.34,8.73,8.32,0.25,-0.93,0.38,-0.23,-0.52,-0.06,-0.06,-0.03,-1.04,4.36,-4.45,-3.37,-2.03,-0.48,0.1,-0.45,4.0,0.0,0.0,0.01,-0.97,10.16,157.883329,1,0.06,0.06,0.03,0.03,0.02,0.02,0.02,0.01,0.02,1.49,1.93,1.17,1.57,1.1,1.84,1.53,0.33,3.43,0.04,2.18,3.45,D0011
2024-06-05 22:21:57+00:00,gi01sumo,59.998,-39.481,-2147483647,-2147483647,-4.81,0.48,-0.73,0.49,-0.23,1.44,2.61,0.1,2024/06/05 22:21:57.989,6.1,0.68,-0.51,0.6,-0.07,-0.37,0.07,0.06,0.07,-0.89,17.25,4.12,8.42,8.42,0.26,-0.93,0.39,-0.29,-0.54,-0.06,-0.05,-0.03,-1.03,-0.74,-4.64,-3.76,-2.98,-0.54,0.16,-0.46,4.0,0.0,0.0,0.01,-0.97,9.41,157.924995,1,0.06,0.05,0.03,0.03,0.02,0.02,0.02,0.01,0.02,4.32,1.97,1.4,1.43,1.12,1.82,1.51,0.24,2.98,0.11,2.11,2.99,D0011
2024-06-05 23:21:57+00:00,gi01sumo,59.998,-39.481,-2147483647,-2147483647,-4.81,0.48,-0.73,0.49,-0.13,1.92,2.94,0.18,2024/06/05 23:21:57.690,6.05,0.66,-0.52,0.59,-0.16,-0.37,0.07,0.06,0.07,-0.86,18.79,4.03,9.67,8.05,0.25,-0.93,0.38,-0.33,-0.53,-0.06,-0.05,-0.04,-1.04,-1.12,-4.55,-4.7,-2.54,-0.62,0.31,-0.46,4.0,0.0,0.0,0.01,-0.97,6.76,157.966662,1,0.06,0.05,0.03,0.02,0.02,0.02,0.02,0.01,0.02,3.62,2.05,1.39,1.99,1.14,1.99,1.58,0.7,3.44,-0.04,2.13,3.51,D0011
2024-06-06 00:21:58+00:00,gi01sumo,59.998,-39.481,-2147483647,-2147483647,-4.81,0.48,-0.73,0.49,-0.26,1.43,2.23,0.05,2024/06/06 00:21:58.066,6.07,0.68,-0.52,0.59,-0.12,-0.36,0.06,0.06,0.07,-0.9,18.08,4.0,9.15,7.28,0.28,-0.93,0.38,-0.32,-0.54,-0.05,-0.05,-0.04,-1.04,-2.42,-4.39,-6.59,-2.8,-0.58,0.6,-0.46,4.0,0.0,0.0,0.01,-0.97,6.43,158.008329,1,0.06,0.05,0.03,0.03,0.02,0.02,0.02,0.01,0.02,2.94,1.83,1.44,2.19,1.05,2.02,1.42,0.34,2.65,-0.07,2.19,2.67,D0011
2024-06-06 01:21:58+00:00,gi01sumo,59.998,-39.481,-2147483647,-2147483647,-4.81,0.48,-0.73,0.49,-0.04,1.99,2.61,-0.13,2024/06/06 01:21:58.682,0.19,0.65,-0.56,0.58,0.8,-0.36,0.06,0.06,0.07,-0.9,17.72,4.41,9.15,7.42,0.27,-0.89,0.39,-0.25,-0.54,-0.04,-0.05,-0.05,-1.04,-3.53,-4.52,-5.17,-2.88,-0.3,0.28,-0.46,4.0,0.0,0.0,0.02,-0.97,5.97,158.049995,1,0.05,0.04,0.03,0.43,0.03,0.01,0.01,0.02,0.02,3.45,1.66,2.19,1.84,1.13,1.86,1.53,-0.75,3.03,-0.2,1.92,3.13,D0011
2024-06-06 02:21:57+00:00,gi01sumo,59.998,-39.481,-2147483647,-2147483647,-4.81,0.48,-0.73,0.5,-0.22,1.66,2.3,0.07,2024/06/06 02:21:57.769,0.66,0.69,-0.59,0.58,0.8,-0.37,0.05,0.05,0.08,-0.91,15.78,4.0,7.62,7.24,0.29,-0.86,0.4,0.57,-0.53,-0.04,-0.05,-0.05,-1.03,-0.38,-4.38,-2.95,-2.5,-0.12,0.03,-0.46,4.0,0.0,0.0,0.01,-0.97,4.27,158.091662,1,0.05,0.04,0.02,0.03,0.03,0.01,0.01,0.02,0.02,3.16,1.67,1.07,1.14,1.07,1.55,1.38,-1.86,2.13,-0.18,2.07,2.83,D0011
2024-06-06 03:21:57+00:00,gi01sumo,59.998,-39.481,-2147483647,-2147483647,-4.81,0.48,-0.73,0.5,-0.5,0.89,1.38,-0.08,2024/06/06 03:21:57.867,0.68,0.65,-0.6,0.58,0.77,-0.37,0.05,0.05,0.07,-0.91,14.46,2.95,5.44,4.93,0.29,-0.84,0.41,0.55,-0.54,-0.04,-0.04,-0.04,-1.03,-1.29,-4.21,-2.85,-2.22,-0.16,0.06,-0.46,4.0,0.0,0.0,0.01,-0.97,3.39,158.133329,1,0.05,0.03,0.02,0.03,0.02,0.01,0.01,0.01,0.02,3.56,1.16,1.14,0.72,0.95,1.18,0.92,-1.39,0.98,-0.21,1.97,1.71,D0011
2024-06-06 04:21:58+00:00,gi01sumo,59.998,-39.481,-2147483647,-2147483647,-4.81,0.48,-0.73,0.49,0.14,2.22,2.85,0.0,2024/06/06 04:21:58.059,0.66,0.69,-0.58,0.58,0.73,-0.36,0.04,0.05,0.07,-0.92,17.47,4.08,9.01,7.39,0.28,-0.85,0.4,0.57,-0.53,-0.04,-0.04,-0.04,-1.02,-0.99,-3.76,-4.16,-2.87,-0.42,0.29,-0.46,4.0,0.0,0.0,0.01,-0.97,7.25,158.174995,1,0.05,0.04,0.02,0.03,0.02,0.01,0.01,0.02,0.02,3.68,1.79,1.06,1.87,1.0,1.77,1.44,-2.01,3.01,-0.15,1.96,3.62,D0011
2024-06-06 05:21:58+00:00,gi01sumo,59.998,-39.481,-2147483647,-2147483647,-4.81,0.48,-0.73,0.5,0.35,2.33,2.38,-0.04,2024/06/06 05:21:58.044,0.68,0.67,-0.61,0.58,0.76,-0.38,0.04,0.04,0.07,-0.92,16.74,4.26,7.79,6.53,0.31,-0.84,0.41,0.59,-0.53,-0.03,-0.04,-0.03,-1.03,0.28,-3.68,-3.53,-2.52,-0.33,0.27,-0.46,4.0,0.0,0.0,0.01,-0.97,7.07,158.216662,1,0.05,0.03,0.02,0.03,0.02,0.01,0.01,0.01,0.02,3.35,1.46,1.22,1.61,1.01,1.47,1.35,-1.58,2.94,-0.37,1.8,3.36,D0011
2024-06-06 06:21:57+00:00,gi01sumo,59.998,-39.481,-2147483647,-2147483647,-4.81,0.48,-0.73,0.5,0.57,2.33,2.0,-0.11,2024/06/06 06:21:57.993,0.68,0.64,-0.61,0.58,0.76,-0.37,0.04,0.05,0.07,-0.93,17.05,4.88,7.89,5.97,0.32,-0.83,0.41,0.61,-0.53,-0.03,-0.04,-0.03,-1.01,0.93,-3.11,-2.84,-2.28,-0.45,0.22,-0.46,4.0,0.0,0.0,0.01,-0.97,8.05,158.258329,1,0.05,0.03,0.02,0.02,0.02,0.01,0.01,0.01,0.01,3.51,1.3,1.47,1.26,1.11,1.45,1.15,-1.17,2.87,-0.45,1.78,3.14,D0011
2024-06-06 07:21:57+00:00,gi01sumo,59.998,-39.481,-2147483647,-2147483647,-4.81,0.48,-0.73,0.5,0.42,2.63,2.95,-0.01,2024/06/06 07:21:57.828,0.68,0.63,-0.61,0.58,0.75,-0.37,0.04,0.05,0.07,-0.92,17.37,4.86,8.7,8.35,0.3,-0.84,0.41,0.6,-0.52,-0.03,-0.04,-0.04,-1.01,-2.23,-4.14,-2.81,-2.58,-0.21,0.26,-0.45,4.0,0.0,0.0,0.01,-0.97,6.91,158.299995,1,0.05,0.03,0.02,0.02,0.02,0.01,0.01,0.01,0.01,4.01,1.8,1.59,2.12,1.17,1.67,1.68,-1.95,3.45,-0.28,1.82,3.98,D0011
2024-06-06 08:21:58+00:00,gi01sumo,59.998,-39.481,-2147483647,-2147483647,-4.81,0.48,-0.73,0.49,0.91,2.53,2.1,0.06,2024/06/06 08:21:58.667,0.86,0.63,-0.62,0.58,0.97,-0.38,0.04,0.04,0.07,-0.92,16.09,5.46,8.38,6.05,0.32,-0.83,0.41,0.74,-0.53,-0.03,-0.03,-0.03,-1.01,0.14,-3.55,-2.61,-1.5,-0.56,0.11,-0.46,4.0,0.0,0.0,0.01,-0.97,6.95,158.341662,1,0.04,0.03,0.02,0.05,0.02,0.01,0.01,0.01,0.01,3.87,1.34,1.81,1.33,1.28,1.55,1.05,-1.55,3.01,-0.38,1.72,3.41,D0011
2024-06-06 09:21:58+00:00,gi01sumo,59.998,-39.481,-2147483647,-2147483647,-4.81,0.47,-0.73,0.5,1.02,2.53,2.51,-0.21,2024/06/06 09:21:58.676,0.78,0.62,-0.61,0.58,0.87,-0.38,0.04,0.05,0.07,-0.93,15.48,6.96,9.4,8.04,0.32,-0.83,0.42,0.7,-0.52,-0.03,-0.03,-0.04,-1.02,-1.92,-4.77,-3.31,-2.36,-0.72,0.31,-0.45,4.0,0.0,0.0,0.01,-0.97,7.52,158.383329,1,0.04,0.03,0.02,0.02,0.02,0.01,0.01,0.01,0.01,3.81,1.64,2.86,2.32,1.54,1.83,1.49,-1.6,3.34,-0.14,1.6,3.71,D0011
2024-06-06 10:21:58+00:00,gi01sumo,59.998,-39.481,-2147483647,-2147483647,-4.81,0.47,-0.73,0.49,0.56,2.46,2.58,-0.15,2024/06/06 10:21:58.394,0.64,0.65,-0.6,0.59,0.72,-0.37,0.04,0.05,0.07,-0.92,15.6,5.42,9.17,8.19,0.3,-0.84,0.4,0.57,-0.53,-0.03,-0.04,-0.04,-1.02,-1.06,-4.39,-3.92,-2.71,-0.46,0.25,-0.45,4.0,0.0,0.0,0.01,-0.97,7.26,158.424995,1,0.05,0.03,0.02,0.03,0.02,0.01,0.01,0.02,0.02,3.72,1.75,1.92,2.09,1.28,1.71,1.6,-1.46,3.3,-0.26,1.9,3.61,D0011
2024-06-06 11:21:57+00:00,gi01sumo,59.998,-39.481,-2147483647,-2147483647,-4.81,0.47,-0.73,0.49,0.97,2.63,2.63,-0.28,2024/06/06 11:21:57.808,0.64,0.65,-0.61,0.58,0.8,-0.37,0.04,0.05,0.07,-0.92,17.66,6.82,9.29,8.53,0.3,-0.84,0.4,0.43,-0.52,-0.03,-0.05,-0.03,-1.02,-2.63,-4.56,-3.43,-2.54,-0.72,0.32,-0.45,4.0,0.0,0.0,0.01,-0.97,6.06,158.466662,1,0.05,0.03,0.02,0.08,0.02,0.01,0.01,0.01,0.01,3.58,1.75,2.74,2.61,1.53,1.9,1.59,-1.2,3.66,-0.17,1.83,3.85,D0011
2024-06-06 12:21:57+00:00,gi01sumo,59.998,-39.481,-2147483647,-2147483647,-4.81,0.47,-0.73,0.49,0.6,2.68,2.88,-0.34,2024/06/06 12:21:57.768,0.59,0.64,-0.6,0.58,0.67,-0.38,0.05,0.05,0.06,-0.92,15.3,5.89,9.72,8.36,0.29,-0.86,0.4,0.51,-0.51,-0.04,-0.04,-0.04,-1.02,-2.18,-3.98,-2.93,-2.45,-0.44,0.3,-0.45,4.0,0.0,0.0,0.01,-0.97,6.24,158.508329,1,0.05,0.03,0.02,0.03,0.02,0.01,0.01,0.01,0.02,3.28,1.88,2.14,2.56,1.35,1.83,1.76,-1.47,3.69,-0.27,1.78,3.98,D0011
2024-06-06 13:21:57+00:00,gi01sumo,59.998,-39.481,-2147483647,-2147483647,-4.81,0.47,-0.73,0.49,0.59,2.94,3.37,-0.21,2024/06/06 13:21:57.890,0.49,0.63,-0.61,0.57,0.56,-0.38,0.04,0.05,0.06,-0.93,14.49,5.84,9.85,8.94,0.29,-0.85,0.41,0.43,-0.51,-0.03,-0.04,-0.03,-1.01,-1.8,-4.94,-2.9,-3.22,-0.37,0.34,-0.45,4.0,0.0,0.0,0.01,-0.97,5.85,158.549995,1,0.05,0.03,0.02,0.02,0.02,0.01,0.01,0.01,0.01,3.15,2.13,2.26,2.71,1.37,1.9,1.97,-1.38,4.3,-0.24,1.69,4.52,D0011
2024-06-06 14:21:58+00:00,gi01sumo,59.998,-39.481,-2147483647,-2147483647,-4.81,0.47,-0.73,0.49,0.87,2.76,2.69,-0.13,2024/06/06 14:21:58.117,0.67,0.65,-0.59,0.58,0.77,-0.36,0.04,0.05,0.07,-0.92,15.03,6.67,9.87,8.39,0.26,-0.85,0.4,0.57,-0.53,-0.03,-0.05,-0.04,-1.02,-1.39,-4.61,-3.58,-2.87,-0.64,0.33,-0.45,4.0,0.0,0.0,0.01,-0.97,6.31,158.591662,1,0.05,0.04,0.02,0.03,0.02,0.01,0.01,0.01,0.02,3.58,1.82,2.87,2.54,1.54,1.9,1.66,-1.45,3.66,-0.31,1.8,3.95,D0011
2024-06-06 15:21:57+00:00,gi01sumo,59.998,-39.481,-2147483647,-2147483647,-4.81,0.47,-0.73,0.49,1.41,3.15,2.49,-0.21,2024/06/06 15:21:57.815,0.69,0.62,-0.61,0.59,0.78,-0.37,0.04,0.05,0.08,-0.92,14.87,6.84,10.98,7.21,0.28,-0.86,0.41,0.59,-0.52,-0.03,-0.04,-0.04,-1.02,-0.6,-5.15,-2.54,-2.26,-0.95,0.2,-0.45,4.0,0.0,0.0,0.02,-0.97,7.32,158.633329,1,0.05,0.03,0.02,0.03,0.02,0.01,0.01,0.02,0.01,2.81,1.72,3.01,2.22,1.72,1.99,1.21,-1.03,4.11,-0.43,1.8,4.26,D0011
2024-06-06 16:21:57+00:00,gi01sumo,59.998,-39.481,-2147483647,-2147483647,-4.81,0.47,-0.73,0.49,1.15,2.84,2.45,-0.1,2024/06/06 16:21:57.935,0.69,0.63,-0.6,0.58,0.79,-0.37,0.04,0.05,0.07,-0.93,15.32,6.45,9.85,7.28,0.29,-0.85,0.4,0.6,-0.52,-0.04,-0.04,-0.04,-1.03,-2.26,-4.08,-2.56,-1.81,-0.78,0.22,-0.45,4.0,0.0,0.0,0.02,-0.97,6.98,158.674995,1,0.05,0.03,0.02,0.03,0.02,0.01,0.01,0.01,0.02,3.06,1.6,2.73,2.02,1.57,1.84,1.27,-1.13,3.75,-0.34,1.68,3.93,D0011
2024-06-06 17:21:58+00:00,gi01sumo,59.998,-39.481,-2147483647,-2147483647,-4.81,0.47,-0.73,0.49,0.9,2.9,2.15,-0.48,2024/06/06 17:21:58.176,0.65,0.66,-0.61,0.59,0.73,-0.37,0.04,0.04,0.07,-0.92,13.94,6.14,10.1,7.05,0.28,-0.86,0.4,0.56,-0.53,-0.03,-0.04,-0.04,-1.02,-0.78,-3.83,-2.99,-2.56,-0.96,0.4,-0.45,4.0,0.0,0.0,0.01,-0.97,6.15,158.716662,1,0.05,0.03,0.02,0.02,0.02,0.01,0.01,0.01,0.01,2.23,1.55,2.24,2.28,1.37,1.9,1.29,-0.95,3.55,-0.66,1.87,3.73,D0011
2024-06-06 18:21:58+00:00,gi01sumo,59.998,-39.481,-2147483647,-2147483647,-4.81,0.47,-0.73,0.49,0.93,2.68,2.11,-0.06,2024/06/06 18:21:58.436,0.67,0.67,-0.6,0.58,0.77,-0.37,0.04,0.05,0.07,-0.93,13.88,5.4,8.5,6.01,0.3,-0.85,0.4,0.58,-0.55,-0.03,-0.04,-0.04,-1.01,-1.31,-3.34,-3.0,-1.57,-0.56,0.11,-0.45,4.0,0.0,0.0,0.01,-0.97,4.29,158.758329,1,0.05,0.03,0.02,0.03,0.02,0.01,0.01,0.02,0.01,3.68,1.4,1.83,1.29,1.29,1.59,1.05,-0.99,3.37,-0.48,1.83,3.55,D0011
2024-06-06 19:21:58+00:00,gi01sumo,59.998,-39.481,-2147483647,-2147483647,-4.81,0.48,-0.73,0.49,2.22,3.35,2.24,-0.17,2024/06/06 19:21:58.122,0.72,0.67,-0.61,0.58,0.8,-0.36,0.04,0.05,0.08,-0.92,13.91,5.71,8.94,5.17,0.27,-0.84,0.4,0.63,-0.55,-0.03,-0.04,-0.05,-1.02,-1.99,-2.85,-2.44,-0.79,-0.42,0.02,-0.45,4.0,0.0,0.0,0.02,-0.97,5.68,158.799995,1,0.05,0.03,0.02,0.03,0.02,0.01,0.01,0.02,0.02,3.94,1.5,1.33,1.04,1.4,1.52,0.75,-0.46,4.56,-0.28,1.77,4.59,D0011
2024-06-06 20:21:58+00:00,gi01sumo,59.998,-39.481,-2147483647,-2147483647,-4.81,0.48,-0.73,0.49,0.83,2.46,2.16,0.02,2024/06/06 20:21:58.076,0.69,0.64,-0.62,0.57,0.87,-0.38,0.04,0.04,0.06,-0.93,14.06,5.72,8.1,6.75,0.32,-0.83,0.42,0.54,-0.52,-0.03,-0.03,-0.03,-1.02,-1.52,-3.51,-1.92,-1.71,-0.62,0.2,-0.45,4.0,0.0,0.0,0.01,-0.97,5.64,158.841662,1,0.04,0.03,0.02,0.05,0.02,0.01,0.01,0.01,0.01,3.22,1.4,1.97,1.55,1.29,1.59,1.18,-1.15,3.18,-0.34,1.48,3.39,D0011
2024-06-06 21:21:57+00:00,gi01sumo,59.998,-39.481,-2147483647,-2147483647,-4.81,0.47,-0.73,0.49,1.23,2.71,2.12,-0.06,2024/06/06 21:21:57.938,0.7,0.67,-0.61,0.58,0.78,-0.36,0.04,0.05,0.07,-0.92,13.17,5.82,8.03,5.88,0.3,-0.85,0.4,0.61,-0.53,-0.03,-0.04,-0.03,-1.02,-2.53,-3.68,-2.23,-1.45,-0.57,0.06,-0.45,4.0,0.0,0.0,0.01,-0.97,3.53,158.883329,1,0.05,0.03,0.02,0.03,0.02,0.01,0.01,0.01,0.01,4.15,1.43,1.94,1.3,1.41,1.6,0.97,-0.89,3.53,-0.36,1.71,3.66,D0011
2024-06-06 22:21:57+00:00,gi01sumo,59.998,-39.481,-2147483647,-2147483647,-4.81,0.47,-0.73,0.49,2.34,3.69,2.61,-0.09,2024/06/06 22:21:57.763,0.7,0.64,-0.61,0.58,0.81,-0.37,0.04,0.05,0.07,-0.91,13.93,6.35,10.89,6.49,0.27,-0.86,0.41,0.56,-0.52,-0.03,-0.04,-0.04,-1.03,-3.1,-3.15,-2.59,-0.98,-0.64,0.05,-0.45,4.0,0.0,0.0,0.01,-0.97,6.02,158.924995,1,0.05,0.03,0.02,0.03,0.02,0.01,0.01,0.01,0.02,3.07,1.87,2.23,1.6,1.76,1.87,0.98,-0.52,5.06,-0.31,1.62,5.1,D0011
2024-06-06 23:21:58+00:00,gi01sumo,59.998,-39.481,-2147483647,-2147483647,-4.81,0.47,-0.73,0.49,2.81,4.0,2.75,-0.17,2024/06/06 23:21:58.160,0.71,0.65,-0.6,0.58,0.82,-0.38,0.04,0.05,0.07,-0.92,14.6,7.43,11.0,6.28,0.28,-0.86,0.41,0.61,-0.54,-0.03,-0.04,-0.04,-1.01,-1.85,-2.87,-1.98,-0.87,-0.47,0.02,-0.45,4.0,0.0,0.0,0.01,-0.97,6.14,158.966662,1,0.05,0.03,0.02,0.03,0.02,0.01,0.01,0.01,0.01,2.64,1.89,1.96,1.32,1.76,1.77,0.91,-0.39,5.59,-0.24,1.67,5.6,D0011
2024-06-07 00:21:57+00:00,gi01sumo,59.998,-39.481,-2147483647,-2147483647,-4.81,0.48,-0.73,0.49,2.37,3.21,2.16,0.03,2024/06/07 00:21:57.734,0.72,0.63,-0.61,0.58,0.81,-0.39,0.04,0.04,0.07,-0.92,13.94,5.58,6.96,4.95,0.3,-0.85,0.41,0.64,-0.53,-0.03,-0.03,-0.04,-1.01,-1.08,-2.5,-1.3,-0.61,-0.34,-0.01,-0.45,4.0,0.0,0.0,0.01,-0.97,5.19,159.008329,1,0.05,0.03,0.02,0.02,0.02,0.01,0.01,0.01,0.01,3.59,1.43,1.19,0.74,1.38,1.36,0.72,-0.28,4.53,-0.16,1.45,4.54,D0011
2024-06-07 01:21:58+00:00,gi01sumo,59.998,-39.481,-2147483647,-2147483647,-4.81,0.47,-0.73,0.49,1.33,2.54,2.11,-0.09,2024/06/07 01:21:58.168,0.73,0.62,-0.62,0.57,0.83,-0.37,0.04,0.05,0.07,-0.93,14.67,5.76,8.44,5.87,0.3,-0.84,0.42,0.64,-0.51,-0.03,-0.04,-0.04,-1.02,-1.72,-3.65,-2.09,-1.18,-0.54,0.07,-0.45,4.0,0.0,0.0,0.01,-0.97,5.96,159.049995,1,0.04,0.03,0.02,0.02,0.02,0.01,0.01,0.01,0.01,4.25,1.44,1.97,1.24,1.45,1.56,0.96,-0.92,3.42,-0.18,1.48,3.55,D0011
2024-06-07 02:21:57+00:00,gi01sumo,59.998,-39.481,-2147483647,-2147483647,-4.81,0.48,-0.73,0.49,1.36,2.23,1.64,0.03,2024/06/07 02:21:57.667,0.73,0.61,-0.62,0.57,0.81,-0.39,0.04,0.04,0.06,-0.92,14.92,5.64,7.19,4.36,0.33,-0.83,0.42,0.64,-0.51,-0.03,-0.03,-0.03,-1.01,-0.66,-2.28,-2.14,-1.13,-0.36,0.03,-0.45,4.0,0.0,0.0,0.01,-0.97,6.86,159.091662,1,0.04,0.03,0.02,0.03,0.02,0.01,0.01,0.01,0.01,3.15,1.18,1.05,0.79,1.17,1.28,0.7,-0.51,3.03,-0.17,1.39,3.08,D0011
2024-06-07 03:21:57+00:00,gi01sumo,59.998,-39.481,-2147483647,-2147483647,-4.81,0.47,-0.73,0.49,0.81,2.19,1.8,-0.02,2024/06/07 03:21:57.946,0.73,0.64,-0.62,0.57,0.81,-0.38,0.04,0.04,0.06,-0.93,15.84,5.36,7.95,5.66,0.32,-0.84,0.41,0.66,-0.51,-0.03,-0.03,-0.03,-1.01,0.12,-3.1,-2.77,-1.85,-0.55,0.19,-0.45,4.0,0.0,0.0,0.01,-0.97,6.01,159.133329,1,0.04,0.03,0.02,0.02,0.02,0.01,0.01,0.01,0.01,2.8,1.23,1.59,1.22,1.18,1.46,0.99,-1.0,2.76,-0.34,1.46,2.95,D0011
2024-06-07 04:21:57+00:00,gi01sumo,59.998,-39.481,-2147483647,-2147483647,-4.81,0.48,-0.73,0.49,0.82,1.81,1.54,-0.05,2024/06/07 04:21:57.993,0.73,0.62,-0.62,0.56,0.81,-0.38,0.04,0.04,0.06,-0.92,15.27,4.28,5.84,4.68,0.32,-0.83,0.43,0.65,-0.53,-0.03,-0.03,-0.03,-1.02,0.95,-2.87,-1.6,-1.65,-0.32,0.06,-0.45,4.0,0.0,0.0,0.01,-0.97,7.19,159.174995,1,0.04,0.03,0.02,0.02,0.02,0.01,0.01,0.01,0.01,2.4,1.06,1.08,0.78,1.03,1.16,0.82,-0.75,2.4,-0.16,1.42,2.52,D0011
2024-06-07 05:21:57+00:00,gi01sumo,59.998,-39.481,-2147483647,-2147483647,-4.81,0.48,-0.73,0.49,0.78,2.0,1.76,0.03,2024/06/07 05:21:57.855,0.71,0.63,-0.61,0.57,0.8,-0.38,0.04,0.04,0.06,-0.93,16.67,4.94,6.45,5.4,0.31,-0.83,0.42,0.63,-0.52,-0.03,-0.04,-0.03,-1.02,1.28,-3.18,-1.76,-1.43,-0.37,0.09,-0.45,4.0,0.0,0.0,0.01,-0.97,9.84,159.216662,1,0.04,0.03,0.02,0.02,0.02,0.01,0.01,0.01,0.01,2.8,1.13,1.37,0.97,1.13,1.27,0.95,-0.92,2.62,-0.22,1.42,2.78,D0011
2024-06-07 06:21:58+00:00,gi01sumo,59.998,-39.481,-2147483647,-2147483647,-4.81,0.48,-0.73,0.49,0.63,1.95,1.61,-0.1,2024/06/07 06:21:58.578,0.7,0.64,-0.61,0.57,0.8,-0.38,0.04,0.04,0.06,-0.92,16.45,4.46,6.44,4.92,0.33,-0.84,0.42,0.62,-0.52,-0.03,-0.04,-0.03,-1.01,0.05,-3.04,-2.38,-1.28,-0.34,0.1,-0.46,4.0,0.0,0.0,0.01,-0.97,9.16,159.258329,1,0.04,0.03,0.02,0.02,0.02,0.01,0.01,0.01,0.01,3.62,1.04,1.11,0.79,0.99,1.18,0.86,-0.88,2.43,-0.32,1.4,2.61,D0011
2024-06-07 07:21:57+00:00,gi01sumo,59.998,-39.481,-2147483647,-2147483647,-4.81,0.48,-0.73,0.5,0.36,1.69,1.68,-0.11,2024/06/07 07:21:57.783,0.68,0.63,-0.62,0.57,0.78,-0.37,0.04,0.04,0.06,-0.92,16.06,3.44,5.54,5.02,0.32,-0.83,0.43,0.6,-0.52,-0.03,-0.04,-0.03,-1.02,0.45,-2.87,-1.36,-1.33,-0.18,0.13,-0.46,4.0,0.0,0.0,0.01,-0.97,9.36,159.299995,1,0.04,0.03,0.02,0.02,0.02,0.01,0.01,0.01,0.01,3.24,1.0,0.75,0.69,0.8,1.02,0.97,-1.04,2.15,-0.23,1.41,2.4,D0011
2024-06-07 08:21:58+00:00,gi01sumo,59.998,-39.481,-2147483647,-2147483647,-4.81,0.48,-0.73,0.5,0.59,1.84,1.58,-0.2,2024/06/07 08:21:58.249,0.71,0.64,-0.61,0.57,0.8,-0.38,0.04,0.04,0.06,-0.92,16.45,4.22,5.67,4.87,0.31,-0.84,0.42,0.58,-0.53,-0.03,-0.04,-0.03,-1.01,0.66,-2.77,-2.65,-1.46,-0.31,0.11,-0.45,4.0,0.0,0.0,0.02,-0.97,10.12,159.341662,1,0.04,0.03,0.02,0.03,0.02,0.01,0.01,0.01,0.01,4.26,1.01,1.02,0.79,0.96,1.13,0.87,-0.89,2.33,-0.29,1.45,2.51,D0011
